rosbagTimestamp,lane_markings,header,seq,stamp,secs,nsecs,frame_id,look_index,timeStamp,frameNum,host_left,state,long_distance_to_end,curve,model_degree,c0_position,c1_heading_angle,c2_curvature,c3_curvature_derivative,start_point,x,y,quality,id,track_status,quality,attr,color,continuity,width,host_right,state,long_distance_to_end,curve,model_degree,c0_position,c1_heading_angle,c2_curvature,c3_curvature_derivative,start_point,x,y,quality,id,track_status,quality,attr,color,continuity,width,neighbor_left,state,long_distance_to_end,curve,model_degree,c0_position,c1_heading_angle,c2_curvature,c3_curvature_derivative,start_point,x,y,quality,id,track_status,quality,attr,color,continuity,width,neighbor_right,state,long_distance_to_end,curve,model_degree,c0_position,c1_heading_angle,c2_curvature,c3_curvature_derivative,start_point,x,y,quality,id,track_status,quality,attr,color,continuity,width,host_lane_width,left_lane_width,right_lane_width,ego_lane_change_status,road_edges,Header,seq,stamp,secs,nsecs,frame_id,look_index,left_road_edge,quality,reserved,type,id,traceStatus,roadEdgeCurve,long_distance_to_end,curve,model_degree,c0_position,c1_heading_angle,c2_curvature,c3_curvature_derivative,start_point,x,y,right_road_edge,quality,reserved,type,id,traceStatus,roadEdgeCurve,long_distance_to_end,curve,model_degree,c0_position,c1_heading_angle,c2_curvature,c3_curvature_derivative,start_point,x,y,error_flag,detected_edge_cnt
1620811956496106545,,,0,,0,0,'',0,0.0,0,,,23.239999771118164,,0,1.5103000402450562,0.014557999558746815,4.400000034365803e-05,-9.650000265537528e-07,,0.0,2.0,,236,2,1,,0,1,0.0,,,45.029998779296875,,0,-1.8561999797821045,0.011795000173151493,3.999999989900971e-06,1.0099999769863643e-07,,0.0,-2.0,,232,2,1,,0,1,0.0,,,0.0,,0,0.0,0.0,0.0,0.0,,0.0,0.0,,0,0,0,,0,0,0.0,,,0.0,,0,-0.0,-0.0,-0.0,-0.0,,0.0,-5.625,,0,2,1,,0,1,0.0,0.0,0.0,0.0,0,,,0,,0,0,'',0,,1,0,0,233,2,,23.729999542236328,,0,-2.4256999492645264,0.020083000883460045,-0.0002500000118743628,-2.4118999135680497e-05,,0.0,0.0,,1,0,0,0,0,,0.0,,0,-0.0,-0.0,-0.0,-0.0,,0.0,0.0,0,0
1620811956546107959,,,0,,0,0,'',0,0.0,0,,,23.239999771118164,,0,1.517199993133545,0.0139979999512434,4.199999966658652e-05,-9.650000265537528e-07,,0.0,2.0,,236,2,1,,0,1,0.0,,,45.029998779296875,,0,-1.8507000207901,0.01119800005108118,3.999999989900971e-06,1.0099999769863643e-07,,0.0,-2.0,,232,2,1,,0,1,0.0,,,0.0,,0,0.0,0.0,0.0,0.0,,0.0,0.0,,0,0,0,,0,0,0.0,,,0.0,,0,-0.0,-0.0,-0.0,-0.0,,0.0,-5.625,,0,2,1,,0,1,0.0,0.0,0.0,0.0,0,,,0,,0,0,'',0,,1,0,0,233,2,,23.729999542236328,,0,-2.4256999492645264,0.020083000883460045,-0.0002500000118743628,-2.4118999135680497e-05,,0.0,0.0,,1,0,0,0,0,,0.0,,0,-0.0,-0.0,-0.0,-0.0,,0.0,0.0,0,0
1620811956596861328,,,0,,0,0,'',0,0.0,0,,,22.270000457763672,,0,1.5169999599456787,0.012795000337064266,4.099999932805076e-05,-1.3459999763654196e-06,,0.0,2.0,,236,2,1,,0,1,0.0,,,44.04999923706055,,0,-1.8528000116348267,0.009955000132322311,3.999999989900971e-06,-1.0499999802959792e-07,,0.0,-2.0,,232,2,1,,0,1,0.0,,,0.0,,0,0.0,0.0,0.0,0.0,,0.0,0.0,,0,0,0,,0,0,0.0,,,0.0,,0,-0.0,-0.0,-0.0,-0.0,,0.0,-5.625,,0,2,1,,0,1,0.0,0.0,0.0,0.0,0,,,0,,0,0,'',0,,1,0,0,233,2,,21.209999084472656,,0,-2.3905999660491943,0.02219099923968315,-0.0003349999897181988,-2.3946999135660008e-05,,0.0,0.0,,1,0,0,0,0,,0.0,,0,-0.0,-0.0,-0.0,-0.0,,0.0,0.0,0,0
1620811956646103871,,,0,,0,0,'',0,0.0,0,,,22.270000457763672,,0,1.5230000019073486,0.012172999791800976,3.899999865097925e-05,-1.3459999763654196e-06,,0.0,2.0,,236,2,1,,0,1,0.0,,,44.04999923706055,,0,-1.8481999635696411,0.00930000003427267,3.999999989900971e-06,-1.0499999802959792e-07,,0.0,-2.0,,232,2,1,,0,1,0.0,,,0.0,,0,0.0,0.0,0.0,0.0,,0.0,0.0,,0,0,0,,0,0,0.0,,,0.0,,0,-0.0,-0.0,-0.0,-0.0,,0.0,-5.625,,0,2,1,,0,1,0.0,0.0,0.0,0.0,0,,,0,,0,0,'',0,,1,0,0,233,2,,21.209999084472656,,0,-2.3905999660491943,0.02219099923968315,-0.0003349999897181988,-2.3946999135660008e-05,,0.0,0.0,,1,0,0,0,0,,0.0,,0,-0.0,-0.0,-0.0,-0.0,,0.0,0.0,0,0
1620811956696319308,,,0,,0,0,'',0,0.0,0,,,18.760000228881836,,0,1.528499960899353,0.012992000207304955,5.400000009103678e-05,2.9430000267893774e-06,,0.0,2.0,,236,2,1,,0,1,0.0,,,43.08000183105469,,0,-1.857100009918213,0.00988100003451109,-1.4000000192027073e-05,-3.5840000691678142e-06,,0.0,-2.0,,232,2,1,,0,1,0.0,,,0.0,,0,0.0,0.0,0.0,0.0,,0.0,0.0,,0,0,0,,0,0,0.0,,,0.0,,0,-0.0,-0.0,-0.0,-0.0,,0.0,-5.625,,0,2,1,,0,1,0.0,0.0,0.0,0.0,0,,,0,,0,0,'',0,,1,0,0,233,2,,20.239999771118164,,0,-2.4570000171661377,0.01825300045311451,-0.0003699999942909926,-1.3642000340041704e-05,,0.0,0.0,,1,0,0,0,0,,0.0,,0,-0.0,-0.0,-0.0,-0.0,,0.0,0.0,0,0
1620811956746091655,,,0,,0,0,'',0,0.0,0,,,18.760000228881836,,0,1.534600019454956,0.012446999549865723,5.900000178371556e-05,2.9430000267893774e-06,,0.0,2.0,,236,2,1,,0,1,0.0,,,43.08000183105469,,0,-1.8525999784469604,0.009263000451028347,-1.9999999494757503e-05,-3.5840000691678142e-06,,0.0,-2.0,,232,2,1,,0,1,0.0,,,0.0,,0,0.0,0.0,0.0,0.0,,0.0,0.0,,0,0,0,,0,0,0.0,,,0.0,,0,-0.0,-0.0,-0.0,-0.0,,0.0,-5.625,,0,2,1,,0,1,0.0,0.0,0.0,0.0,0,,,0,,0,0,'',0,,1,0,0,233,2,,20.239999771118164,,0,-2.4570000171661377,0.01825300045311451,-0.0003699999942909926,-1.3642000340041704e-05,,0.0,0.0,,1,0,0,0,0,,0.0,,0,-0.0,-0.0,-0.0,-0.0,,0.0,0.0,0,0
1620811956796028731,,,0,,0,0,'',0,0.0,0,,,18.760000228881836,,0,1.537500023841858,0.012047999538481236,6.0999998822808266e-05,2.9430000267893774e-06,,0.0,2.0,,236,2,1,,0,1,0.0,,,43.08000183105469,,0,-1.8503999710083008,0.008825999684631824,-2.099999983329326e-05,-3.5840000691678142e-06,,0.0,-2.0,,232,2,1,,0,1,0.0,,,0.0,,0,0.0,0.0,0.0,0.0,,0.0,0.0,,0,0,0,,0,0,0.0,,,0.0,,0,-0.0,-0.0,-0.0,-0.0,,0.0,-5.625,,0,2,1,,0,1,0.0,0.0,0.0,0.0,0,,,0,,0,0,'',0,,1,0,0,233,2,,20.239999771118164,,0,-2.4570000171661377,0.01825300045311451,-0.0003699999942909926,-1.3642000340041704e-05,,0.0,0.0,,1,0,0,0,0,,0.0,,0,-0.0,-0.0,-0.0,-0.0,,0.0,0.0,0,0
1620811956845984778,,,0,,0,0,'',0,0.0,0,,,17.799999237060547,,0,1.5383000373840332,0.011385999619960785,7.400000322377309e-05,4.8850001803657506e-06,,0.0,2.0,,236,2,1,,0,1,0.0,,,42.119998931884766,,0,-1.8528000116348267,0.007590999826788902,-2.4000000848900527e-05,-2.730999995037564e-06,,0.0,-2.0,,232,2,1,,0,1,0.0,,,0.0,,0,0.0,0.0,0.0,0.0,,0.0,0.0,,0,0,0,,0,0,0.0,,,0.0,,0,-0.0,-0.0,-0.0,-0.0,,0.0,-5.625,,0,2,1,,0,1,0.0,0.0,0.0,0.0,0,,,0,,0,0,'',0,,1,0,0,233,2,,18.309999465942383,,0,-2.4256999492645264,0.022129999473690987,-0.00043700000969693065,-1.5604999134666286e-05,,0.0,0.0,,1,0,0,0,0,,0.0,,0,-0.0,-0.0,-0.0,-0.0,,0.0,0.0,0,0
1620811956896052020,,,0,,0,0,'',0,0.0,0,,,17.799999237060547,,0,1.5434999465942383,0.010683000087738037,8.099999831756577e-05,4.8850001803657506e-06,,0.0,2.0,,236,2,1,,0,1,0.0,,,42.119998931884766,,0,-1.8494000434875488,0.006785999983549118,-2.8000000384054147e-05,-2.730999995037564e-06,,0.0,-2.0,,232,2,1,,0,1,0.0,,,0.0,,0,0.0,0.0,0.0,0.0,,0.0,0.0,,0,0,0,,0,0,0.0,,,0.0,,0,-0.0,-0.0,-0.0,-0.0,,0.0,-5.625,,0,2,1,,0,1,0.0,0.0,0.0,0.0,0,,,0,,0,0,'',0,,1,0,0,233,2,,18.309999465942383,,0,-2.4256999492645264,0.022129999473690987,-0.00043700000969693065,-1.5604999134666286e-05,,0.0,0.0,,1,0,0,0,0,,0.0,,0,-0.0,-0.0,-0.0,-0.0,,0.0,0.0,0,0
1620811956946002156,,,0,,0,0,'',0,0.0,0,,,16.850000381469727,,0,1.54830002784729,0.010312999598681927,6.900000153109431e-05,2.42700002672791e-06,,0.0,2.0,,236,2,1,,0,1,0.0,,,30.049999237060547,,0,-1.832900047302246,0.008151999674737453,-2.4000000848900527e-05,3.4999999343199306e-08,,0.0,-2.0,,232,2,1,,0,1,0.0,,,0.0,,0,0.0,0.0,0.0,0.0,,0.0,0.0,,0,0,0,,0,0,0.0,,,0.0,,0,-0.0,-0.0,-0.0,-0.0,,0.0,-5.625,,0,2,1,,0,1,0.0,0.0,0.0,0.0,0,,,0,,0,0,'',0,,1,0,0,233,2,,16.579999923706055,,0,-2.3671000003814697,0.02246199920773506,-0.0004830000107176602,-8.944000001065433e-06,,0.0,0.0,,1,0,0,0,0,,0.0,,0,-0.0,-0.0,-0.0,-0.0,,0.0,0.0,0,0
1620811956996036050,,,0,,0,0,'',0,0.0,0,,,16.850000381469727,,0,1.5530999898910522,0.009467000141739845,7.200000254670158e-05,2.42700002672791e-06,,0.0,2.0,,236,2,1,,0,1,0.0,,,30.049999237060547,,0,-1.829200029373169,0.0072119999676942825,-2.4000000848900527e-05,3.4999999343199306e-08,,0.0,-2.0,,232,2,1,,0,1,0.0,,,0.0,,0,0.0,0.0,0.0,0.0,,0.0,0.0,,0,0,0,,0,0,0.0,,,0.0,,0,-0.0,-0.0,-0.0,-0.0,,0.0,-5.625,,0,2,1,,0,1,0.0,0.0,0.0,0.0,0,,,0,,0,0,'',0,,1,0,0,233,2,,16.579999923706055,,0,-2.3671000003814697,0.02246199920773506,-0.0004830000107176602,-8.944000001065433e-06,,0.0,0.0,,1,0,0,0,0,,0.0,,0,-0.0,-0.0,-0.0,-0.0,,0.0,0.0,0,0
1620811957045969123,,,0,,0,0,'',0,0.0,0,,,15.890000343322754,,0,1.5405000448226929,0.006634000223129988,6.399999983841553e-05,5.60000010807471e-08,,0.0,2.0,,236,2,1,,0,1,0.0,,,50.0,,0,-1.8091000318527222,0.008061000145971775,-4.3000000005122274e-05,-2.579000010882737e-06,,0.0,-2.0,,232,2,1,,0,1,0.0,,,0.0,,0,0.0,0.0,0.0,0.0,,0.0,0.0,,0,0,0,,0,0,0.0,,,0.0,,0,-0.0,-0.0,-0.0,-0.0,,0.0,-5.625,,0,2,1,,0,1,0.0,0.0,0.0,0.0,0,,,0,,0,0,'',0,,1,0,0,233,2,,16.059999465942383,,0,-2.3280999660491943,0.024095000699162483,-0.000547999981790781,-2.008199953706935e-05,,0.0,0.0,,1,0,0,0,0,,0.0,,0,-0.0,-0.0,-0.0,-0.0,,0.0,0.0,0,0
1620811957095912715,,,0,,0,0,'',0,0.0,0,,,15.890000343322754,,0,1.5434999465942383,0.005597999785095453,6.399999983841553e-05,5.60000010807471e-08,,0.0,2.0,,236,2,1,,0,1,0.0,,,50.0,,0,-1.8055000305175781,0.006916999816894531,-4.70000013592653e-05,-2.579000010882737e-06,,0.0,-2.0,,232,2,1,,0,1,0.0,,,0.0,,0,0.0,0.0,0.0,0.0,,0.0,0.0,,0,0,0,,0,0,0.0,,,0.0,,0,-0.0,-0.0,-0.0,-0.0,,0.0,-5.625,,0,2,1,,0,1,0.0,0.0,0.0,0.0,0,,,0,,0,0,'',0,,1,0,0,233,2,,16.059999465942383,,0,-2.3280999660491943,0.024095000699162483,-0.000547999981790781,-2.008199953706935e-05,,0.0,0.0,,1,0,0,0,0,,0.0,,0,-0.0,-0.0,-0.0,-0.0,,0.0,0.0,0,0
1620811957146106229,,,0,,0,0,'',0,0.0,0,,,14.9399995803833,,0,1.5534000396728516,0.00596599979326129,5.0999999075429514e-05,-1.369999949929479e-06,,0.0,2.0,,236,2,1,,0,1,0.0,,,50.0,,0,-1.8020000457763672,0.005913000088185072,-4.8000001697801054e-05,-1.6579999737587059e-06,,0.0,-2.0,,232,2,1,,0,1,0.0,,,0.0,,0,0.0,0.0,0.0,0.0,,0.0,0.0,,0,0,0,,0,0,0.0,,,0.0,,0,-0.0,-0.0,-0.0,-0.0,,0.0,-5.625,,0,2,1,,0,1,0.0,0.0,0.0,0.0,0,,,0,,0,0,'',0,,1,0,0,233,2,,14.220000267028809,,0,-2.308500051498413,0.017889000475406647,-0.0005929999751970172,-6.3880002016958315e-06,,0.0,0.0,,1,0,0,0,0,,0.0,,0,-0.0,-0.0,-0.0,-0.0,,0.0,0.0,0,0
1620811957196002497,,,0,,0,0,'',0,0.0,0,,,14.9399995803833,,0,1.555999994277954,0.0051739998161792755,4.8999998398358e-05,-1.369999949929479e-06,,0.0,2.0,,236,2,1,,0,1,0.0,,,50.0,,0,-1.799399971961975,0.005024999845772982,-5.0999999075429514e-05,-1.6579999737587059e-06,,0.0,-2.0,,232,2,1,,0,1,0.0,,,0.0,,0,0.0,0.0,0.0,0.0,,0.0,0.0,,0,0,0,,0,0,0.0,,,0.0,,0,-0.0,-0.0,-0.0,-0.0,,0.0,-5.625,,0,2,1,,0,1,0.0,0.0,0.0,0.0,0,,,0,,0,0,'',0,,1,0,0,233,2,,14.220000267028809,,0,-2.308500051498413,0.017889000475406647,-0.0005929999751970172,-6.3880002016958315e-06,,0.0,0.0,,1,0,0,0,0,,0.0,,0,-0.0,-0.0,-0.0,-0.0,,0.0,0.0,0,0
1620811957245975466,,,0,,0,0,'',0,0.0,0,,,13.989999771118164,,0,1.5642000436782837,0.0050929998978972435,5.6000000768108293e-05,2.069999993636884e-07,,0.0,2.0,,236,2,1,,0,1,0.0,,,50.0,,0,-1.7891000509262085,0.002985999919474125,-5.6000000768108293e-05,-1.7280000292885234e-06,,0.0,-2.0,,232,2,1,,0,1,0.0,,,0.0,,0,0.0,0.0,0.0,0.0,,0.0,0.0,,0,0,0,,0,0,0.0,,,0.0,,0,-0.0,-0.0,-0.0,-0.0,,0.0,-5.625,,0,2,1,,0,1,0.0,0.0,0.0,0.0,0,,,0,,0,0,'',0,,1,0,0,233,2,,14.029999732971191,,0,-2.3006999492645264,0.015478000044822693,-0.000610999995842576,-4.9479999688628595e-06,,0.0,0.0,,1,0,0,0,0,,0.0,,0,-0.0,-0.0,-0.0,-0.0,,0.0,0.0,0,0
1620811957295951797,,,0,,0,0,'',0,0.0,0,,,13.989999771118164,,0,1.5664000511169434,0.004246000200510025,5.6000000768108293e-05,2.069999993636884e-07,,0.0,2.0,,236,2,1,,0,1,0.0,,,50.0,,0,-1.7878999710083008,0.0020310000982135534,-5.8000001445179805e-05,-1.7280000292885234e-06,,0.0,-2.0,,232,2,1,,0,1,0.0,,,0.0,,0,0.0,0.0,0.0,0.0,,0.0,0.0,,0,0,0,,0,0,0.0,,,0.0,,0,-0.0,-0.0,-0.0,-0.0,,0.0,-5.625,,0,2,1,,0,1,0.0,0.0,0.0,0.0,0,,,0,,0,0,'',0,,1,0,0,233,2,,14.029999732971191,,0,-2.3006999492645264,0.015478000044822693,-0.000610999995842576,-4.9479999688628595e-06,,0.0,0.0,,1,0,0,0,0,,0.0,,0,-0.0,-0.0,-0.0,-0.0,,0.0,0.0,0,0
1620811957347534191,,,0,,0,0,'',0,0.0,0,,,13.989999771118164,,0,1.5673999786376953,0.0037239999510347843,5.700000110664405e-05,2.069999993636884e-07,,0.0,2.0,,236,2,1,,0,1,0.0,,,50.0,,0,-1.787500023841858,0.0014530000044032931,-5.999999848427251e-05,-1.7280000292885234e-06,,0.0,-2.0,,232,2,1,,0,1,0.0,,,0.0,,0,0.0,0.0,0.0,0.0,,0.0,0.0,,0,0,0,,0,0,0.0,,,0.0,,0,-0.0,-0.0,-0.0,-0.0,,0.0,-5.625,,0,2,1,,0,1,0.0,0.0,0.0,0.0,0,,,0,,0,0,'',0,,1,0,0,233,2,,14.029999732971191,,0,-2.3006999492645264,0.015478000044822693,-0.000610999995842576,-4.9479999688628595e-06,,0.0,0.0,,1,0,0,0,0,,0.0,,0,-0.0,-0.0,-0.0,-0.0,,0.0,0.0,0,0
1620811957396083013,,,0,,0,0,'',0,0.0,0,,,11.399999618530273,,0,1.5801000595092773,0.003765000030398369,8.099999831756577e-05,3.0169999263307545e-06,,0.0,2.0,,236,2,1,,0,1,0.0,,,50.0,,0,-1.7731000185012817,-0.004488999955356121,-5.6000000768108293e-05,-6.409999855350179e-07,,0.0,-2.0,,232,2,1,,0,1,0.0,,,0.0,,0,0.0,0.0,0.0,0.0,,0.0,0.0,,0,0,0,,0,0,0.0,,,0.0,,0,-0.0,-0.0,-0.0,-0.0,,0.0,-5.625,,0,2,1,,0,1,0.0,0.0,0.0,0.0,0,,,0,,0,0,'',0,,1,0,0,233,2,,12.5,,0,-2.2695000171661377,0.014494000002741814,-0.0007539999787695706,-5.856200004927814e-05,,0.0,0.0,,1,0,0,0,0,,0.0,,0,-0.0,-0.0,-0.0,-0.0,,0.0,0.0,0,0
1620811957445942478,,,0,,0,0,'',0,0.0,0,,,11.399999618530273,,0,1.5816999673843384,0.002988999942317605,8.399999933317304e-05,3.0169999263307545e-06,,0.0,2.0,,236,2,1,,0,1,0.0,,,50.0,,0,-1.7754000425338745,-0.0053980001248419285,-5.700000110664405e-05,-6.409999855350179e-07,,0.0,-2.0,,232,2,1,,0,1,0.0,,,0.0,,0,0.0,0.0,0.0,0.0,,0.0,0.0,,0,0,0,,0,0,0.0,,,0.0,,0,-0.0,-0.0,-0.0,-0.0,,0.0,-5.625,,0,2,1,,0,1,0.0,0.0,0.0,0.0,0,,,0,,0,0,'',0,,1,0,0,233,2,,12.5,,0,-2.2695000171661377,0.014494000002741814,-0.0007539999787695706,-5.856200004927814e-05,,0.0,0.0,,1,0,0,0,0,,0.0,,0,-0.0,-0.0,-0.0,-0.0,,0.0,0.0,0,0
1620811957495962776,,,0,,0,0,'',0,0.0,0,,,11.260000228881836,,0,1.5817999839782715,0.0020439999643713236,8.600000001024455e-05,2.7329999738867627e-06,,0.0,2.0,,236,2,1,,0,1,0.0,,,50.0,,0,-1.7589000463485718,-0.00892299972474575,-5.400000009103678e-05,1.1000000021965661e-08,,0.0,-2.0,,232,2,1,,0,1,0.0,,,0.0,,0,0.0,0.0,0.0,0.0,,0.0,0.0,,0,0,0,,0,0,0.0,,,0.0,,0,-0.0,-0.0,-0.0,-0.0,,0.0,-5.625,,0,2,1,,0,1,0.0,0.0,0.0,0.0,0,,,0,,0,0,'',0,,1,0,0,233,2,,12.140000343322754,,0,-2.2655999660491943,0.01094099972397089,-0.0009219999774359167,-5.875699935131706e-05,,0.0,0.0,,1,0,0,0,0,,0.0,,0,-0.0,-0.0,-0.0,-0.0,,0.0,0.0,0,0
1620811957546066359,,,0,,0,0,'',0,0.0,0,,,11.260000228881836,,0,1.5824999809265137,0.001091000041924417,9.000000136438757e-05,2.7329999738867627e-06,,0.0,2.0,,236,2,1,,0,1,0.0,,,50.0,,0,-1.7633999586105347,-0.010014000348746777,-5.400000009103678e-05,1.1000000021965661e-08,,0.0,-2.0,,232,2,1,,0,1,0.0,,,0.0,,0,0.0,0.0,0.0,0.0,,0.0,0.0,,0,0,0,,0,0,0.0,,,0.0,,0,-0.0,-0.0,-0.0,-0.0,,0.0,-5.625,,0,2,1,,0,1,0.0,0.0,0.0,0.0,0,,,0,,0,0,'',0,,1,0,0,233,2,,12.140000343322754,,0,-2.2655999660491943,0.01094099972397089,-0.0009219999774359167,-5.875699935131706e-05,,0.0,0.0,,1,0,0,0,0,,0.0,,0,-0.0,-0.0,-0.0,-0.0,,0.0,0.0,0,0
1620811957595983934,,,0,,0,0,'',0,0.0,0,,,13.199999809265137,,0,1.5782999992370605,-0.0007869999972172081,3.600000127335079e-05,-2.4539999685657676e-06,,0.0,2.0,,236,2,1,,0,1,0.0,,,50.0,,0,-1.7301000356674194,-0.013158000074326992,-4.400000034365803e-05,2.119000100719859e-06,,0.0,-2.0,,232,2,1,,0,1,0.0,,,0.0,,0,0.0,0.0,0.0,0.0,,0.0,0.0,,0,0,0,,0,0,0.0,,,0.0,,0,-0.0,-0.0,-0.0,-0.0,,0.0,-5.625,,0,2,1,,0,1,0.0,0.0,0.0,0.0,0,,,0,,0,0,'',0,,1,0,0,233,2,,10.75,,0,-2.234299898147583,0.008015000261366367,-0.001184999942779541,-8.572600199840963e-05,,0.0,0.0,,1,0,0,0,0,,0.0,,0,-0.0,-0.0,-0.0,-0.0,,0.0,0.0,0,0
1620811957645990419,,,0,,0,0,'',0,0.0,0,,,13.199999809265137,,0,1.5778000354766846,-0.0015310000162571669,3.300000025774352e-05,-2.4539999685657676e-06,,0.0,2.0,,236,2,1,,0,1,0.0,,,50.0,,0,-1.7364000082015991,-0.013976999558508396,-4.099999932805076e-05,2.119000100719859e-06,,0.0,-2.0,,232,2,1,,0,1,0.0,,,0.0,,0,0.0,0.0,0.0,0.0,,0.0,0.0,,0,0,0,,0,0,0.0,,,0.0,,0,-0.0,-0.0,-0.0,-0.0,,0.0,-5.625,,0,2,1,,0,1,0.0,0.0,0.0,0.0,0,,,0,,0,0,'',0,,1,0,0,233,2,,10.75,,0,-2.234299898147583,0.008015000261366367,-0.001184999942779541,-8.572600199840963e-05,,0.0,0.0,,1,0,0,0,0,,0.0,,0,-0.0,-0.0,-0.0,-0.0,,0.0,0.0,0,0
1620811957695994946,,,0,,0,0,'',0,0.0,0,,,32.25,,0,1.5769000053405762,-0.0018070000223815441,6.000000212225132e-06,-4.2400001802889165e-06,,0.0,2.0,,236,2,1,,0,1,0.0,,,50.0,,0,-1.7237000465393066,-0.014330999925732613,-3.600000127335079e-05,1.4319999763756641e-06,,0.0,-2.0,,232,2,1,,0,1,0.0,,,0.0,,0,0.0,0.0,0.0,0.0,,0.0,0.0,,0,0,0,,0,0,0.0,,,0.0,,0,-0.0,-0.0,-0.0,-0.0,,0.0,-5.625,,0,2,1,,0,1,0.0,0.0,0.0,0.0,0,,,0,,0,0,'',0,,1,0,0,233,2,,10.979999542236328,,0,-2.183500051498413,-0.007023000158369541,-0.0012730000307783484,-2.7021000278182328e-05,,0.0,0.0,,1,0,0,0,0,,0.0,,0,-0.0,-0.0,-0.0,-0.0,,0.0,0.0,0,0
1620811957745971112,,,0,,0,0,'',0,0.0,0,,,32.25,,0,1.5758999586105347,-0.0025969999842345715,-0.0,-4.2400001802889165e-06,,0.0,2.0,,236,2,1,,0,1,0.0,,,50.0,,0,-1.7307000160217285,-0.015159999951720238,-3.400000059627928e-05,1.4319999763756641e-06,,0.0,-2.0,,232,2,1,,0,1,0.0,,,0.0,,0,0.0,0.0,0.0,0.0,,0.0,0.0,,0,0,0,,0,0,0.0,,,0.0,,0,-0.0,-0.0,-0.0,-0.0,,0.0,-5.625,,0,2,1,,0,1,0.0,0.0,0.0,0.0,0,,,0,,0,0,'',0,,1,0,0,233,2,,10.979999542236328,,0,-2.183500051498413,-0.007023000158369541,-0.0012730000307783484,-2.7021000278182328e-05,,0.0,0.0,,1,0,0,0,0,,0.0,,0,-0.0,-0.0,-0.0,-0.0,,0.0,0.0,0,0
1620811957795997263,,,0,,0,0,'',0,0.0,0,,,31.309999465942383,,0,1.5664000511169434,-0.004920999985188246,-0.0,-4.4720000005327165e-06,,0.0,2.0,,236,2,1,,0,1,0.0,,,50.0,,0,-1.7365000247955322,-0.015596999786794186,-2.700000004551839e-05,1.1800000265793642e-06,,0.0,-2.0,,232,2,1,,0,1,0.0,,,0.0,,0,0.0,0.0,0.0,0.0,,0.0,0.0,,0,0,0,,0,0,0.0,,,0.0,,0,-0.0,-0.0,-0.0,-0.0,,0.0,-5.625,,0,2,1,,0,1,0.0,0.0,0.0,0.0,0,,,0,,0,0,'',0,,1,0,0,233,2,,10.039999961853027,,0,-2.1914000511169434,-0.01066299993544817,-0.0013490000274032354,-2.689500070118811e-05,,0.0,0.0,,1,0,0,0,0,,0.0,,0,-0.0,-0.0,-0.0,-0.0,,0.0,0.0,0,0
1620811957845897094,,,0,,0,0,'',0,0.0,0,,,31.309999465942383,,0,1.5638999938964844,-0.005778999999165535,-4.999999873689376e-06,-4.4720000005327165e-06,,0.0,2.0,,236,2,1,,0,1,0.0,,,50.0,,0,-1.7441999912261963,-0.016478000208735466,-2.499999936844688e-05,1.1800000265793642e-06,,0.0,-2.0,,232,2,1,,0,1,0.0,,,0.0,,0,0.0,0.0,0.0,0.0,,0.0,0.0,,0,0,0,,0,0,0.0,,,0.0,,0,-0.0,-0.0,-0.0,-0.0,,0.0,-5.625,,0,2,1,,0,1,0.0,0.0,0.0,0.0,0,,,0,,0,0,'',0,,1,0,0,233,2,,10.039999961853027,,0,-2.1914000511169434,-0.01066299993544817,-0.0013490000274032354,-2.689500070118811e-05,,0.0,0.0,,1,0,0,0,0,,0.0,,0,-0.0,-0.0,-0.0,-0.0,,0.0,0.0,0,0
1620811957895919918,,,0,,0,0,'',0,0.0,0,,,31.309999465942383,,0,1.562399983406067,-0.006209999788552523,-7.999999979801942e-06,-4.4720000005327165e-06,,0.0,2.0,,236,2,1,,0,1,0.0,,,50.0,,0,-1.7481000423431396,-0.01691799983382225,-2.4000000848900527e-05,1.1800000265793642e-06,,0.0,-2.0,,232,2,1,,0,1,0.0,,,0.0,,0,0.0,0.0,0.0,0.0,,0.0,0.0,,0,0,0,,0,0,0.0,,,0.0,,0,-0.0,-0.0,-0.0,-0.0,,0.0,-5.625,,0,2,1,,0,1,0.0,0.0,0.0,0.0,0,,,0,,0,0,'',0,,1,0,0,233,2,,10.039999961853027,,0,-2.1914000511169434,-0.01066299993544817,-0.0013490000274032354,-2.689500070118811e-05,,0.0,0.0,,1,0,0,0,0,,0.0,,0,-0.0,-0.0,-0.0,-0.0,,0.0,0.0,0,0
1620811957945969920,,,0,,0,0,'',0,0.0,0,,,30.3700008392334,,0,1.5657000541687012,-0.00841899961233139,7.999999979801942e-06,-1.570999984323862e-06,,0.0,2.0,,236,2,1,,0,1,0.0,,,50.0,,0,-1.7574000358581543,-0.017501000314950943,-1.700000029813964e-05,1.0930000371445203e-06,,0.0,-2.0,,232,2,1,,0,1,0.0,,,0.0,,0,0.0,0.0,0.0,0.0,,0.0,0.0,,0,0,0,,0,0,0.0,,,0.0,,0,-0.0,-0.0,-0.0,-0.0,,0.0,-5.625,,0,2,1,,0,1,0.0,0.0,0.0,0.0,0,,,0,,0,0,'',0,,1,0,0,233,2,,9.09000015258789,,0,-2.1953001022338867,-0.014107000082731247,-0.001424000016413629,-2.602600034151692e-05,,0.0,0.0,,1,0,0,0,0,,0.0,,0,-0.0,-0.0,-0.0,-0.0,,0.0,0.0,0,0
1620811957996177578,,,0,,0,0,'',0,0.0,0,,,30.3700008392334,,0,1.561400055885315,-0.009328000247478485,4.999999873689376e-06,-1.570999984323862e-06,,0.0,2.0,,236,2,1,,0,1,0.0,,,50.0,,0,-1.7660000324249268,-0.01843399927020073,-1.5999999959603883e-05,1.0930000371445203e-06,,0.0,-2.0,,232,2,1,,0,1,0.0,,,0.0,,0,0.0,0.0,0.0,0.0,,0.0,0.0,,0,0,0,,0,0,0.0,,,0.0,,0,-0.0,-0.0,-0.0,-0.0,,0.0,-5.625,,0,2,1,,0,1,0.0,0.0,0.0,0.0,0,,,0,,0,0,'',0,,1,0,0,233,2,,9.09000015258789,,0,-2.1953001022338867,-0.014107000082731247,-0.001424000016413629,-2.602600034151692e-05,,0.0,0.0,,1,0,0,0,0,,0.0,,0,-0.0,-0.0,-0.0,-0.0,,0.0,0.0,0,0
1620811958045915350,,,0,,0,0,'',0,0.0,0,,,29.43000030517578,,0,1.568600058555603,-0.009057999588549137,-3.9999998989515007e-05,-8.54399968375219e-06,,0.0,2.0,,236,2,1,,0,1,0.0,,,50.0,,0,-1.8253999948501587,-0.021908000111579895,-4.999999873689376e-06,2.27999998969608e-06,,0.0,-2.0,,232,2,1,,0,1,0.0,,,0.0,,0,0.0,0.0,0.0,0.0,,0.0,0.0,,0,0,0,,0,0,0.0,,,0.0,,0,-0.0,-0.0,-0.0,-0.0,,0.0,-5.625,,0,2,1,,0,1,0.0,0.0,0.0,0.0,0,,,0,,0,0,'',0,,1,0,0,233,2,,8.149999618530273,,0,-2.210900068283081,-0.018797000870108604,-0.0014979999978095293,-2.602600034151692e-05,,0.0,0.0,,1,0,0,0,0,,0.0,,0,-0.0,-0.0,-0.0,-0.0,,0.0,0.0,0,0
1620811958096054414,,,0,,0,0,'',0,0.0,0,,,29.43000030517578,,0,1.5641000270843506,-0.009959000162780285,-5.199999941396527e-05,-8.54399968375219e-06,,0.0,2.0,,236,2,1,,0,1,0.0,,,50.0,,0,-1.8360999822616577,-0.02276800014078617,-1.9999999949504854e-06,2.27999998969608e-06,,0.0,-2.0,,232,2,1,,0,1,0.0,,,0.0,,0,0.0,0.0,0.0,0.0,,0.0,0.0,,0,0,0,,0,0,0.0,,,0.0,,0,-0.0,-0.0,-0.0,-0.0,,0.0,-5.625,,0,2,1,,0,1,0.0,0.0,0.0,0.0,0,,,0,,0,0,'',0,,1,0,0,233,2,,8.149999618530273,,0,-2.210900068283081,-0.018797000870108604,-0.0014979999978095293,-2.602600034151692e-05,,0.0,0.0,,1,0,0,0,0,,0.0,,0,-0.0,-0.0,-0.0,-0.0,,0.0,0.0,0,0
1620811958145892942,,,0,,0,0,'',0,0.0,0,,,17.3799991607666,,0,1.5611000061035156,-0.010638999752700329,-5.8000001445179805e-05,-8.54399968375219e-06,,0.0,2.0,,236,2,1,,0,1,0.0,,,50.0,,0,-1.8393000364303589,-0.0210999995470047,-0.0,2.6190000426140614e-06,,0.0,-2.0,,232,2,1,,0,1,0.0,,,0.0,,0,0.0,0.0,0.0,0.0,,0.0,0.0,,0,0,0,,0,0,0.0,,,0.0,,0,-0.0,-0.0,-0.0,-0.0,,0.0,-5.625,,0,2,1,,0,1,0.0,0.0,0.0,0.0,0,,,0,,0,0,'',0,,1,0,0,233,2,,7.199999809265137,,0,-2.2304000854492188,-0.023401999846100807,-0.0015709999715909362,-2.602600034151692e-05,,0.0,0.0,,1,0,0,0,0,,0.0,,0,-0.0,-0.0,-0.0,-0.0,,0.0,0.0,0,0
1620811958198970513,,,0,,0,0,'',0,0.0,0,,,17.3799991607666,,0,1.555799961090088,-0.011800000444054604,-7.000000186963007e-05,-8.54399968375219e-06,,0.0,2.0,,236,2,1,,0,1,0.0,,,50.0,,0,-1.8496999740600586,-0.02219800092279911,1.9999999949504854e-06,2.6190000426140614e-06,,0.0,-2.0,,232,2,1,,0,1,0.0,,,0.0,,0,0.0,0.0,0.0,0.0,,0.0,0.0,,0,0,0,,0,0,0.0,,,0.0,,0,-0.0,-0.0,-0.0,-0.0,,0.0,-5.625,,0,2,1,,0,1,0.0,0.0,0.0,0.0,0,,,0,,0,0,'',0,,1,0,0,233,2,,7.199999809265137,,0,-2.2304000854492188,-0.023401999846100807,-0.0015709999715909362,-2.602600034151692e-05,,0.0,0.0,,1,0,0,0,0,,0.0,,0,-0.0,-0.0,-0.0,-0.0,,0.0,0.0,0,0
1620811958245912157,,,0,,0,0,'',0,0.0,0,,,33.880001068115234,,0,1.5598000288009644,-0.01208100002259016,-0.0,6.330999894998968e-06,,0.0,2.0,,236,2,1,,0,1,0.0,,,50.0,,0,-1.8446999788284302,-0.018580999225378036,1.9999999949504854e-06,1.7040000557244639e-06,,0.0,-2.0,,232,2,1,,0,1,0.0,,,0.0,,0,0.0,0.0,0.0,0.0,,0.0,0.0,,0,0,0,,0,0,0.0,,,0.0,,0,-0.0,-0.0,-0.0,-0.0,,0.0,-5.625,,0,2,1,,0,1,0.0,0.0,0.0,0.0,0,,,0,,0,0,'',0,,1,0,0,233,2,,6.239999771118164,,0,-2.2539000511169434,-0.028387999162077904,-0.0016459999606013298,-2.602600034151692e-05,,0.0,0.0,,1,0,0,0,0,,0.0,,0,-0.0,-0.0,-0.0,-0.0,,0.0,0.0,0,0
1620811958295912994,,,0,,0,0,'',0,0.0,0,,,33.880001068115234,,0,1.5539000034332275,-0.012807000428438187,9.999999747378752e-06,6.330999894998968e-06,,0.0,2.0,,236,2,1,,0,1,0.0,,,50.0,,0,-1.853700041770935,-0.019308999180793762,3.999999989900971e-06,1.7040000557244639e-06,,0.0,-2.0,,232,2,1,,0,1,0.0,,,0.0,,0,0.0,0.0,0.0,0.0,,0.0,0.0,,0,0,0,,0,0,0.0,,,0.0,,0,-0.0,-0.0,-0.0,-0.0,,0.0,-5.625,,0,2,1,,0,1,0.0,0.0,0.0,0.0,0,,,0,,0,0,'',0,,1,0,0,233,2,,6.239999771118164,,0,-2.2539000511169434,-0.028387999162077904,-0.0016459999606013298,-2.602600034151692e-05,,0.0,0.0,,1,0,0,0,0,,0.0,,0,-0.0,-0.0,-0.0,-0.0,,0.0,0.0,0,0
1620811958345902240,,,0,,0,0,'',0,0.0,0,,,33.880001068115234,,0,1.5507999658584595,-0.013106999918818474,1.4999999621068127e-05,6.330999894998968e-06,,0.0,2.0,,236,2,1,,0,1,0.0,,,50.0,,0,-1.858299970626831,-0.019612999632954597,4.999999873689376e-06,1.7040000557244639e-06,,0.0,-2.0,,232,2,1,,0,1,0.0,,,0.0,,0,0.0,0.0,0.0,0.0,,0.0,0.0,,0,0,0,,0,0,0.0,,,0.0,,0,-0.0,-0.0,-0.0,-0.0,,0.0,-5.625,,0,2,1,,0,1,0.0,0.0,0.0,0.0,0,,,0,,0,0,'',0,,1,0,0,233,2,,6.239999771118164,,0,-2.2539000511169434,-0.028387999162077904,-0.0016459999606013298,-2.602600034151692e-05,,0.0,0.0,,1,0,0,0,0,,0.0,,0,-0.0,-0.0,-0.0,-0.0,,0.0,0.0,0,0
1620811958395824844,,,0,,0,0,'',0,0.0,0,,,21.84000015258789,,0,1.5434000492095947,-0.0135690001770854,2.2000000171829015e-05,6.330999894998968e-06,,0.0,2.0,,236,2,1,,0,1,0.0,,,48.2400016784668,,0,-1.867400050163269,-0.01750200055539608,9.999999747378752e-06,2.8649999421759276e-06,,0.0,-2.0,,232,2,1,,0,1,0.0,,,0.0,,0,0.0,0.0,0.0,0.0,,0.0,0.0,,0,0,0,,0,0,0.0,,,0.0,,0,-0.0,-0.0,-0.0,-0.0,,0.0,-5.625,,0,2,1,,0,1,0.0,0.0,0.0,0.0,0,,,0,,0,0,'',0,,1,0,0,233,2,,5.289999961853027,,0,-2.285099983215332,-0.03376099839806557,-0.00171999994199723,-2.602600034151692e-05,,0.0,0.0,,1,0,0,0,0,,0.0,,0,-0.0,-0.0,-0.0,-0.0,,0.0,0.0,0,0
1620811958445848623,,,0,,0,0,'',0,0.0,0,,,21.84000015258789,,0,1.5369000434875488,-0.014442999847233295,3.099999958067201e-05,6.330999894998968e-06,,0.0,2.0,,236,2,1,,0,1,0.0,,,48.2400016784668,,0,-1.8758000135421753,-0.01838899962604046,1.4000000192027073e-05,2.8649999421759276e-06,,0.0,-2.0,,232,2,1,,0,1,0.0,,,0.0,,0,0.0,0.0,0.0,0.0,,0.0,0.0,,0,0,0,,0,0,0.0,,,0.0,,0,-0.0,-0.0,-0.0,-0.0,,0.0,-5.625,,0,2,1,,0,1,0.0,0.0,0.0,0.0,0,,,0,,0,0,'',0,,1,0,0,233,2,,5.289999961853027,,0,-2.285099983215332,-0.03376099839806557,-0.00171999994199723,-2.602600034151692e-05,,0.0,0.0,,1,0,0,0,0,,0.0,,0,-0.0,-0.0,-0.0,-0.0,,0.0,0.0,0,0
1620811958495863701,,,0,,0,0,'',0,0.0,0,,,9.789999961853027,,0,1.5298000574111938,-0.015506000258028507,4.099999932805076e-05,6.330999894998968e-06,,0.0,2.0,,236,2,1,,0,1,0.0,,,50.0,,0,-1.9520000219345093,-0.02007099986076355,1.1000000085914508e-05,1.2519999472715426e-06,,0.0,-2.0,,232,2,1,,0,1,0.0,,,0.0,,0,0.0,0.0,0.0,0.0,,0.0,0.0,,0,0,0,,0,0,0.0,,,0.0,,0,-0.0,-0.0,-0.0,-0.0,,0.0,-5.625,,0,2,1,,0,1,0.0,0.0,0.0,0.0,0,,,0,,0,0,'',0,,1,0,0,0,0,,0.0,,0,-0.0,-0.0,-0.0,-0.0,,0.0,0.0,,1,0,0,0,0,,0.0,,0,-0.0,-0.0,-0.0,-0.0,,0.0,0.0,0,0
1620811958545904868,,,0,,0,0,'',0,0.0,0,,,9.789999961853027,,0,1.5224000215530396,-0.01600399985909462,4.8999998398358e-05,6.330999894998968e-06,,0.0,2.0,,236,2,1,,0,1,0.0,,,50.0,,0,-1.9615999460220337,-0.020600000396370888,1.2999999853491317e-05,1.2519999472715426e-06,,0.0,-2.0,,232,2,1,,0,1,0.0,,,0.0,,0,0.0,0.0,0.0,0.0,,0.0,0.0,,0,0,0,,0,0,0.0,,,0.0,,0,-0.0,-0.0,-0.0,-0.0,,0.0,-5.625,,0,2,1,,0,1,0.0,0.0,0.0,0.0,0,,,0,,0,0,'',0,,1,0,0,0,0,,0.0,,0,-0.0,-0.0,-0.0,-0.0,,0.0,0.0,,1,0,0,0,0,,0.0,,0,-0.0,-0.0,-0.0,-0.0,,0.0,0.0,0,0
1620811958595952937,,,0,,0,0,'',0,0.0,0,,,5.929999828338623,,0,1.520300030708313,-0.016040999442338943,5.2999999752501026e-05,6.330999894998968e-06,,0.0,2.0,,236,2,1,,0,1,0.0,,,49.04999923706055,,0,-1.9818999767303467,-0.018427999690175056,1.2999999853491317e-05,1.7060000345736626e-06,,0.0,-2.0,,232,2,1,,0,1,0.0,,,0.0,,0,0.0,0.0,0.0,0.0,,0.0,0.0,,0,0,0,,0,0,0.0,,,0.0,,0,-0.0,-0.0,-0.0,-0.0,,0.0,-5.625,,0,2,1,,0,1,0.0,0.0,0.0,0.0,0,,,0,,0,0,'',0,,1,0,0,0,0,,0.0,,0,-0.0,-0.0,-0.0,-0.0,,0.0,0.0,,1,0,0,0,0,,0.0,,0,-0.0,-0.0,-0.0,-0.0,,0.0,0.0,0,0
1620811958645905031,,,0,,0,0,'',0,0.0,0,,,5.929999828338623,,0,1.5124000310897827,-0.01671699993312359,6.199999916134402e-05,6.330999894998968e-06,,0.0,2.0,,236,2,1,,0,1,0.0,,,49.04999923706055,,0,-1.9909000396728516,-0.019146999344229698,1.4999999621068127e-05,1.7060000345736626e-06,,0.0,-2.0,,232,2,1,,0,1,0.0,,,0.0,,0,0.0,0.0,0.0,0.0,,0.0,0.0,,0,0,0,,0,0,0.0,,,0.0,,0,-0.0,-0.0,-0.0,-0.0,,0.0,-5.625,,0,2,1,,0,1,0.0,0.0,0.0,0.0,0,,,0,,0,0,'',0,,1,0,0,0,0,,0.0,,0,-0.0,-0.0,-0.0,-0.0,,0.0,0.0,,1,0,0,0,0,,0.0,,0,-0.0,-0.0,-0.0,-0.0,,0.0,0.0,0,0
1620811958695918792,,,0,,0,0,'',0,0.0,0,,,4.980000019073486,,0,1.5032999515533447,-0.018098000437021255,7.100000220816582e-05,6.330999894998968e-06,,0.0,2.0,,236,2,1,,0,1,0.0,,,37.0,,0,-1.9627000093460083,-0.011210000142455101,2.099999983329326e-05,6.1559999267046805e-06,,0.0,-2.0,,232,2,1,,0,1,0.0,,,0.0,,0,0.0,0.0,0.0,0.0,,0.0,0.0,,0,0,0,,0,0,0.0,,,0.0,,0,-0.0,-0.0,-0.0,-0.0,,0.0,-5.625,,0,2,1,,0,1,0.0,0.0,0.0,0.0,0,,,0,,0,0,'',0,,1,0,0,0,0,,0.0,,0,-0.0,-0.0,-0.0,-0.0,,0.0,0.0,,1,0,0,0,0,,0.0,,0,-0.0,-0.0,-0.0,-0.0,,0.0,0.0,0,0
1620811958745975597,,,0,,0,0,'',0,0.0,0,,,4.980000019073486,,0,1.4943000078201294,-0.0189410001039505,8.099999831756577e-05,6.330999894998968e-06,,0.0,2.0,,236,2,1,,0,1,0.0,,,37.0,,0,-1.9682999849319458,-0.012101000174880028,2.9999999242136255e-05,6.1559999267046805e-06,,0.0,-2.0,,232,2,1,,0,1,0.0,,,0.0,,0,0.0,0.0,0.0,0.0,,0.0,0.0,,0,0,0,,0,0,0.0,,,0.0,,0,-0.0,-0.0,-0.0,-0.0,,0.0,-5.625,,0,2,1,,0,1,0.0,0.0,0.0,0.0,0,,,0,,0,0,'',0,,1,0,0,0,0,,0.0,,0,-0.0,-0.0,-0.0,-0.0,,0.0,0.0,,1,0,0,0,0,,0.0,,0,-0.0,-0.0,-0.0,-0.0,,0.0,0.0,0,0
1620811958795942324,,,0,,0,0,'',0,0.0,0,,,32.869998931884766,,0,1.4675999879837036,-0.022683000192046165,3.600000127335079e-05,4.050000086408545e-07,,0.0,2.0,,236,2,1,,0,1,0.0,,,37.13999938964844,,0,-1.943600058555603,-0.007412999868392944,1.4000000192027073e-05,9.970000292014447e-07,,0.0,-2.0,,232,2,1,,0,1,0.0,,,0.0,,0,0.0,0.0,0.0,0.0,,0.0,0.0,,0,0,0,,0,0,0.0,,,0.0,,0,-0.0,-0.0,-0.0,-0.0,,0.0,-5.625,,0,2,1,,0,1,0.0,0.0,0.0,0.0,0,,,0,,0,0,'',0,,1,0,0,0,0,,0.0,,0,-0.0,-0.0,-0.0,-0.0,,0.0,0.0,,1,0,0,0,0,,0.0,,0,-0.0,-0.0,-0.0,-0.0,,0.0,0.0,0,0
1620811958845938503,,,0,,0,0,'',0,0.0,0,,,32.869998931884766,,0,1.4565000534057617,-0.023624999448657036,3.600000127335079e-05,4.050000086408545e-07,,0.0,2.0,,236,2,1,,0,1,0.0,,,37.13999938964844,,0,-1.9473999738693237,-0.008376000449061394,1.5999999959603883e-05,9.970000292014447e-07,,0.0,-2.0,,232,2,1,,0,1,0.0,,,0.0,,0,0.0,0.0,0.0,0.0,,0.0,0.0,,0,0,0,,0,0,0.0,,,0.0,,0,-0.0,-0.0,-0.0,-0.0,,0.0,-5.625,,0,2,1,,0,1,0.0,0.0,0.0,0.0,0,,,0,,0,0,'',0,,1,0,0,0,0,,0.0,,0,-0.0,-0.0,-0.0,-0.0,,0.0,0.0,,1,0,0,0,0,,0.0,,0,-0.0,-0.0,-0.0,-0.0,,0.0,0.0,0,0
1620811958895985594,,,0,,0,0,'',0,0.0,0,,,32.869998931884766,,0,1.4508999586105347,-0.024080000817775726,3.7000001611886546e-05,4.050000086408545e-07,,0.0,2.0,,236,2,1,,0,1,0.0,,,37.13999938964844,,0,-1.9493999481201172,-0.008839000016450882,1.700000029813964e-05,9.970000292014447e-07,,0.0,-2.0,,232,2,1,,0,1,0.0,,,0.0,,0,0.0,0.0,0.0,0.0,,0.0,0.0,,0,0,0,,0,0,0.0,,,0.0,,0,-0.0,-0.0,-0.0,-0.0,,0.0,-5.625,,0,2,1,,0,1,0.0,0.0,0.0,0.0,0,,,0,,0,0,'',0,,1,0,0,0,0,,0.0,,0,-0.0,-0.0,-0.0,-0.0,,0.0,0.0,,1,0,0,0,0,,0.0,,0,-0.0,-0.0,-0.0,-0.0,,0.0,0.0,0,0
1620811958945892470,,,0,,0,0,'',0,0.0,0,,,35.43000030517578,,0,1.395400047302246,-0.029772000387310982,0.00010399999882793054,4.838000222662231e-06,,0.0,2.0,,236,2,1,,0,1,0.0,,,46.2400016784668,,0,-1.954300045967102,-0.008778000250458717,6.000000212225132e-06,-1.8499999896448571e-06,,0.0,-2.0,,232,2,1,,0,1,0.0,,,0.0,,0,0.0,0.0,0.0,0.0,,0.0,0.0,,0,0,0,,0,0,0.0,,,0.0,,0,-0.0,-0.0,-0.0,-0.0,,0.0,-5.625,,0,2,1,,0,1,0.0,0.0,0.0,0.0,0,,,0,,0,0,'',0,,1,0,0,0,0,,0.0,,0,-0.0,-0.0,-0.0,-0.0,,0.0,0.0,,1,0,0,0,0,,0.0,,0,-0.0,-0.0,-0.0,-0.0,,0.0,0.0,0,0
1620811958995960433,,,0,,0,0,'',0,0.0,0,,,35.43000030517578,,0,1.3812999725341797,-0.030331000685691833,0.00011100000119768083,4.838000222662231e-06,,0.0,2.0,,236,2,1,,0,1,0.0,,,46.2400016784668,,0,-1.9586000442504883,-0.00943399965763092,3.000000106112566e-06,-1.8499999896448571e-06,,0.0,-2.0,,232,2,1,,0,1,0.0,,,0.0,,0,0.0,0.0,0.0,0.0,,0.0,0.0,,0,0,0,,0,0,0.0,,,0.0,,0,-0.0,-0.0,-0.0,-0.0,,0.0,-5.625,,0,2,1,,0,1,0.0,0.0,0.0,0.0,0,,,0,,0,0,'',0,,1,0,0,0,0,,0.0,,0,-0.0,-0.0,-0.0,-0.0,,0.0,0.0,,1,0,0,0,0,,0.0,,0,-0.0,-0.0,-0.0,-0.0,,0.0,0.0,0,0
1620811959045896042,,,0,,0,0,'',0,0.0,0,,,47.560001373291016,,0,1.371899962425232,-0.029335999861359596,0.00011899999663000926,5.680999947799137e-06,,0.0,2.0,,236,2,1,,0,1,0.0,,,49.84000015258789,,0,-1.990399956703186,-0.009170999750494957,-1.9999999949504854e-06,-1.9910000901290914e-06,,0.0,-2.0,,232,2,1,,0,1,0.0,,,0.0,,0,0.0,0.0,0.0,0.0,,0.0,0.0,,0,0,0,,0,0,0.0,,,0.0,,0,-0.0,-0.0,-0.0,-0.0,,0.0,-5.625,,0,2,1,,0,1,0.0,0.0,0.0,0.0,0,,,0,,0,0,'',0,,1,0,0,0,0,,0.0,,0,-0.0,-0.0,-0.0,-0.0,,0.0,0.0,,1,0,0,0,0,,0.0,,0,-0.0,-0.0,-0.0,-0.0,,0.0,0.0,0,0
1620811959095907868,,,0,,0,0,'',0,0.0,0,,,47.560001373291016,,0,1.3580000400543213,-0.02993999980390072,0.00012599999899975955,5.680999947799137e-06,,0.0,2.0,,236,2,1,,0,1,0.0,,,49.84000015258789,,0,-1.9948999881744385,-0.00989499967545271,-4.999999873689376e-06,-1.9910000901290914e-06,,0.0,-2.0,,232,2,1,,0,1,0.0,,,0.0,,0,0.0,0.0,0.0,0.0,,0.0,0.0,,0,0,0,,0,0,0.0,,,0.0,,0,-0.0,-0.0,-0.0,-0.0,,0.0,-5.625,,0,2,1,,0,1,0.0,0.0,0.0,0.0,0,,,0,,0,0,'',0,,1,0,0,0,0,,0.0,,0,-0.0,-0.0,-0.0,-0.0,,0.0,0.0,,1,0,0,0,0,,0.0,,0,-0.0,-0.0,-0.0,-0.0,,0.0,0.0,0,0
1620811959145944831,,,0,,0,0,'',0,0.0,0,,,44.68000030517578,,0,1.3517999649047852,-0.028970999643206596,0.00013099999341648072,5.871000212209765e-06,,0.0,2.0,,236,2,1,,0,2,0.0,,,50.0,,0,-2.007999897003174,-0.00904799997806549,-1.1000000085914508e-05,-2.8029999157297425e-06,,0.0,-2.0,,232,2,1,,0,1,0.0,,,0.0,,0,0.0,0.0,0.0,0.0,,0.0,0.0,,0,0,0,,0,0,0.0,,,0.0,,0,-0.0,-0.0,-0.0,-0.0,,0.0,-5.625,,0,2,1,,0,1,0.0,0.0,0.0,0.0,0,,,0,,0,0,'',0,,1,0,0,0,0,,0.0,,0,-0.0,-0.0,-0.0,-0.0,,0.0,0.0,,1,0,0,0,0,,0.0,,0,-0.0,-0.0,-0.0,-0.0,,0.0,0.0,0,0
1620811959195913453,,,0,,0,0,'',0,0.0,0,,,44.68000030517578,,0,1.3380000591278076,-0.029384000226855278,0.00014000000373926014,5.871000212209765e-06,,0.0,2.0,,236,2,1,,0,2,0.0,,,50.0,,0,-2.012399911880493,-0.009602000005543232,-1.4999999621068127e-05,-2.8029999157297425e-06,,0.0,-2.0,,232,2,1,,0,1,0.0,,,0.0,,0,0.0,0.0,0.0,0.0,,0.0,0.0,,0,0,0,,0,0,0.0,,,0.0,,0,-0.0,-0.0,-0.0,-0.0,,0.0,-5.625,,0,2,1,,0,1,0.0,0.0,0.0,0.0,0,,,0,,0,0,'',0,,1,0,0,0,0,,0.0,,0,-0.0,-0.0,-0.0,-0.0,,0.0,0.0,,1,0,0,0,0,,0.0,,0,-0.0,-0.0,-0.0,-0.0,,0.0,0.0,0,0
1620811959245839190,,,0,,0,0,'',0,0.0,0,,,46.040000915527344,,0,1.3157999515533447,-0.0294950008392334,0.00015700000221841037,5.378999958338682e-06,,0.0,2.0,,236,2,1,,0,2,0.0,,,50.0,,0,-2.0141000747680664,-0.0070329997688531876,-2.300000051036477e-05,-2.5510000796202803e-06,,0.0,-2.0,,232,2,1,,0,1,0.0,,,0.0,,0,0.0,0.0,0.0,0.0,,0.0,0.0,,0,0,0,,0,0,0.0,,,0.0,,0,-0.0,-0.0,-0.0,-0.0,,0.0,-5.625,,0,2,1,,0,1,0.0,0.0,0.0,0.0,0,,,0,,0,0,'',0,,1,0,0,0,0,,0.0,,0,-0.0,-0.0,-0.0,-0.0,,0.0,0.0,,1,0,0,0,0,,0.0,,0,-0.0,-0.0,-0.0,-0.0,,0.0,0.0,0,0
1620811959295849752,,,0,,0,0,'',0,0.0,0,,,46.040000915527344,,0,1.301900029182434,-0.02970300056040287,0.00016399999731220305,5.378999958338682e-06,,0.0,2.0,,236,2,1,,0,2,0.0,,,50.0,,0,-2.0174999237060547,-0.007416999898850918,-2.700000004551839e-05,-2.5510000796202803e-06,,0.0,-2.0,,232,2,1,,0,1,0.0,,,0.0,,0,0.0,0.0,0.0,0.0,,0.0,0.0,,0,0,0,,0,0,0.0,,,0.0,,0,-0.0,-0.0,-0.0,-0.0,,0.0,-5.625,,0,2,1,,0,1,0.0,0.0,0.0,0.0,0,,,0,,0,0,'',0,,1,0,0,0,0,,0.0,,0,-0.0,-0.0,-0.0,-0.0,,0.0,0.0,,1,0,0,0,0,,0.0,,0,-0.0,-0.0,-0.0,-0.0,,0.0,0.0,0,0
1620811959345879786,,,0,,0,0,'',0,0.0,0,,,46.040000915527344,,0,1.294700026512146,-0.02974499948322773,0.00016799999866634607,5.378999958338682e-06,,0.0,2.0,,236,2,1,,0,2,0.0,,,50.0,,0,-2.0192999839782715,-0.007553999777883291,-2.9000000722589903e-05,-2.5510000796202803e-06,,0.0,-2.0,,232,2,1,,0,1,0.0,,,0.0,,0,0.0,0.0,0.0,0.0,,0.0,0.0,,0,0,0,,0,0,0.0,,,0.0,,0,-0.0,-0.0,-0.0,-0.0,,0.0,-5.625,,0,2,1,,0,1,0.0,0.0,0.0,0.0,0,,,0,,0,0,'',0,,1,0,0,0,0,,0.0,,0,-0.0,-0.0,-0.0,-0.0,,0.0,0.0,,1,0,0,0,0,,0.0,,0,-0.0,-0.0,-0.0,-0.0,,0.0,0.0,0,0
1620811959395698823,,,0,,0,0,'',0,0.0,0,,,50.0,,0,1.2781000137329102,-0.02718699909746647,0.00017699999443721026,3.2840000585565576e-06,,0.0,2.0,,236,2,1,,0,2,0.0,,,50.0,,0,-2.025899887084961,-0.010594000108540058,-3.099999958067201e-05,-2.6420000267535215e-06,,0.0,-2.0,,232,2,1,,0,1,0.0,,,0.0,,0,0.0,0.0,0.0,0.0,,0.0,0.0,,0,0,0,,0,0,0.0,,,0.0,,0,-0.0,-0.0,-0.0,-0.0,,0.0,-5.625,,0,2,1,,0,1,0.0,0.0,0.0,0.0,0,,,0,,0,0,'',0,,1,0,0,0,0,,0.0,,0,-0.0,-0.0,-0.0,-0.0,,0.0,0.0,,1,0,0,0,0,,0.0,,0,-0.0,-0.0,-0.0,-0.0,,0.0,0.0,0,0
1620811959445823220,,,0,,0,0,'',0,0.0,0,,,50.0,,0,1.2714999914169312,-0.027343999594449997,0.00018000000272877514,3.2840000585565576e-06,,0.0,2.0,,236,2,1,,0,2,0.0,,,50.0,,0,-2.0285000801086426,-0.010854000225663185,-3.300000025774352e-05,-2.6420000267535215e-06,,0.0,-2.0,,232,2,1,,0,1,0.0,,,0.0,,0,0.0,0.0,0.0,0.0,,0.0,0.0,,0,0,0,,0,0,0.0,,,0.0,,0,-0.0,-0.0,-0.0,-0.0,,0.0,-5.625,,0,2,1,,0,1,0.0,0.0,0.0,0.0,0,,,0,,0,0,'',0,,1,0,0,0,0,,0.0,,0,-0.0,-0.0,-0.0,-0.0,,0.0,0.0,,1,0,0,0,0,,0.0,,0,-0.0,-0.0,-0.0,-0.0,,0.0,0.0,0,0
1620811959495845987,,,0,,0,0,'',0,0.0,0,,,50.0,,0,1.2597999572753906,-0.02466299943625927,0.0001880000054370612,2.635000100781326e-06,,0.0,2.0,,236,2,1,,0,2,0.0,,,50.0,,0,-2.038100004196167,-0.012746999971568584,-3.5000000934815034e-05,-2.564999931564671e-06,,0.0,-2.0,,232,2,1,,0,1,0.0,,,0.0,,0,0.0,0.0,0.0,0.0,,0.0,0.0,,0,0,0,,0,0,0.0,,,0.0,,0,-0.0,-0.0,-0.0,-0.0,,0.0,-5.625,,0,2,1,,0,1,0.0,0.0,0.0,0.0,0,,,0,,0,0,'',0,,1,0,0,0,0,,0.0,,0,-0.0,-0.0,-0.0,-0.0,,0.0,0.0,,1,0,0,0,0,,0.0,,0,-0.0,-0.0,-0.0,-0.0,,0.0,0.0,0,0
1620811959545800501,,,0,,0,0,'',0,0.0,0,,,50.0,,0,1.2480000257492065,-0.024900000542402267,0.00019200000679120421,2.635000100781326e-06,,0.0,2.0,,236,2,1,,0,2,0.0,,,50.0,,0,-2.0441999435424805,-0.0132020004093647,-3.899999865097925e-05,-2.564999931564671e-06,,0.0,-2.0,,232,2,1,,0,1,0.0,,,0.0,,0,0.0,0.0,0.0,0.0,,0.0,0.0,,0,0,0,,0,0,0.0,,,0.0,,0,-0.0,-0.0,-0.0,-0.0,,0.0,-5.625,,0,2,1,,0,1,0.0,0.0,0.0,0.0,0,,,0,,0,0,'',0,,1,0,0,0,0,,0.0,,0,-0.0,-0.0,-0.0,-0.0,,0.0,0.0,,1,0,0,0,0,,0.0,,0,-0.0,-0.0,-0.0,-0.0,,0.0,0.0,0,0
1620811959595898847,,,0,,0,0,'',0,0.0,0,,,49.040000915527344,,0,1.2324999570846558,-0.024397000670433044,0.0001939999929163605,1.2939999578520656e-06,,0.0,2.0,,236,2,1,,0,2,0.0,,,45.439998626708984,,0,-2.0457000732421875,-0.012486999854445457,-3.7000001611886546e-05,-7.350000146288949e-07,,0.0,-2.0,,232,2,1,,0,1,0.0,,,0.0,,0,0.0,0.0,0.0,0.0,,0.0,0.0,,0,0,0,,0,0,0.0,,,0.0,,0,-0.0,-0.0,-0.0,-0.0,,0.0,-5.625,,0,2,1,,0,1,0.0,0.0,0.0,0.0,0,,,0,,0,0,'',0,,1,0,0,0,0,,0.0,,0,-0.0,-0.0,-0.0,-0.0,,0.0,0.0,,1,0,0,0,0,,0.0,,0,-0.0,-0.0,-0.0,-0.0,,0.0,0.0,0,0
1620811959645863967,,,0,,0,0,'',0,0.0,0,,,49.040000915527344,,0,1.2267999649047852,-0.024423999711871147,0.00019500000053085387,1.2939999578520656e-06,,0.0,2.0,,236,2,1,,0,2,0.0,,,45.439998626708984,,0,-2.0485999584198,-0.012621999718248844,-3.7999998312443495e-05,-7.350000146288949e-07,,0.0,-2.0,,232,2,1,,0,1,0.0,,,0.0,,0,0.0,0.0,0.0,0.0,,0.0,0.0,,0,0,0,,0,0,0.0,,,0.0,,0,-0.0,-0.0,-0.0,-0.0,,0.0,-5.625,,0,2,1,,0,1,0.0,0.0,0.0,0.0,0,,,0,,0,0,'',0,,1,0,0,0,0,,0.0,,0,-0.0,-0.0,-0.0,-0.0,,0.0,0.0,,1,0,0,0,0,,0.0,,0,-0.0,-0.0,-0.0,-0.0,,0.0,0.0,0,0
1620811959695977657,,,0,,0,0,'',0,0.0,0,,,48.08000183105469,,0,1.1827000379562378,-0.025245999917387962,0.00020799999765586108,2.9500000664484105e-07,,0.0,2.0,,236,2,1,,0,2,0.0,,,39.619998931884766,,0,-2.0318000316619873,-0.009006000123918056,-3.899999865097925e-05,6.860000212327577e-07,,0.0,-2.0,,232,2,1,,0,1,0.0,,,0.0,,0,0.0,0.0,0.0,0.0,,0.0,0.0,,0,0,0,,0,0,0.0,,,0.0,,0,-0.0,-0.0,-0.0,-0.0,,0.0,-5.625,,0,2,1,,0,1,0.0,0.0,0.0,0.0,0,,,0,,0,0,'',0,,1,0,0,0,0,,0.0,,0,-0.0,-0.0,-0.0,-0.0,,0.0,0.0,,1,0,0,0,0,,0.0,,0,-0.0,-0.0,-0.0,-0.0,,0.0,0.0,0,0
1620811959746016526,,,0,,0,0,'',0,0.0,0,,,48.08000183105469,,0,1.1706000566482544,-0.025404000654816628,0.00020900000527035445,2.9500000664484105e-07,,0.0,2.0,,236,2,1,,0,2,0.0,,,39.619998931884766,,0,-2.0362000465393066,-0.009403999894857407,-3.7999998312443495e-05,6.860000212327577e-07,,0.0,-2.0,,232,2,1,,0,1,0.0,,,0.0,,0,0.0,0.0,0.0,0.0,,0.0,0.0,,0,0,0,,0,0,0.0,,,0.0,,0,-0.0,-0.0,-0.0,-0.0,,0.0,-5.625,,0,2,1,,0,1,0.0,0.0,0.0,0.0,0,,,0,,0,0,'',0,,1,0,0,0,0,,0.0,,0,-0.0,-0.0,-0.0,-0.0,,0.0,0.0,,1,0,0,0,0,,0.0,,0,-0.0,-0.0,-0.0,-0.0,,0.0,0.0,0,0
1620811959796104150,,,0,,0,0,'',0,0.0,0,,,47.119998931884766,,0,1.1373000144958496,-0.023708000779151917,0.00021800000104121864,6.700000199089118e-08,,0.0,2.0,,236,2,1,,0,2,0.0,,,41.04999923706055,,0,-2.02620005607605,-0.007395000196993351,-4.8000001697801054e-05,-1.3489999446392176e-06,,0.0,-2.0,,232,2,1,,0,1,0.0,,,0.0,,0,0.0,0.0,0.0,0.0,,0.0,0.0,,0,0,0,,0,0,0.0,,,0.0,,0,-0.0,-0.0,-0.0,-0.0,,0.0,-5.625,,0,2,1,,0,1,0.0,0.0,0.0,0.0,0,,,0,,0,0,'',0,,1,0,0,0,0,,0.0,,0,-0.0,-0.0,-0.0,-0.0,,0.0,0.0,,1,0,0,0,0,,0.0,,0,-0.0,-0.0,-0.0,-0.0,,0.0,0.0,0,0
1620811959845944212,,,0,,0,0,'',0,0.0,0,,,47.119998931884766,,0,1.1259000301361084,-0.02373800054192543,0.00021800000104121864,6.700000199089118e-08,,0.0,2.0,,236,2,1,,0,2,0.0,,,41.04999923706055,,0,-2.029900074005127,-0.007683000061661005,-4.999999873689376e-05,-1.3489999446392176e-06,,0.0,-2.0,,232,2,1,,0,1,0.0,,,0.0,,0,0.0,0.0,0.0,0.0,,0.0,0.0,,0,0,0,,0,0,0.0,,,0.0,,0,-0.0,-0.0,-0.0,-0.0,,0.0,-5.625,,0,2,1,,0,1,0.0,0.0,0.0,0.0,0,,,0,,0,0,'',0,,1,0,0,0,0,,0.0,,0,-0.0,-0.0,-0.0,-0.0,,0.0,0.0,,1,0,0,0,0,,0.0,,0,-0.0,-0.0,-0.0,-0.0,,0.0,0.0,0,0
1620811959896265483,,,0,,0,0,'',0,0.0,0,,,47.119998931884766,,0,1.1201000213623047,-0.02369300089776516,0.00021800000104121864,6.700000199089118e-08,,0.0,2.0,,236,2,1,,0,2,0.0,,,41.04999923706055,,0,-2.0316998958587646,-0.00776899978518486,-5.0999999075429514e-05,-1.3489999446392176e-06,,0.0,-2.0,,232,2,1,,0,1,0.0,,,0.0,,0,0.0,0.0,0.0,0.0,,0.0,0.0,,0,0,0,,0,0,0.0,,,0.0,,0,-0.0,-0.0,-0.0,-0.0,,0.0,-5.625,,0,2,1,,0,1,0.0,0.0,0.0,0.0,0,,,0,,0,0,'',0,,1,0,0,0,0,,0.0,,0,-0.0,-0.0,-0.0,-0.0,,0.0,0.0,,1,0,0,0,0,,0.0,,0,-0.0,-0.0,-0.0,-0.0,,0.0,0.0,0,0
1620811959945960872,,,0,,0,0,'',0,0.0,0,,,46.15999984741211,,0,1.0836999416351318,-0.02120799943804741,0.00021699999342672527,-1.8709999949351186e-06,,0.0,2.0,,236,2,1,,0,2,0.0,,,40.369998931884766,,0,-2.030100107192993,-0.005816999822854996,-5.900000178371556e-05,-1.96199994206836e-06,,0.0,-2.0,,232,2,1,,0,1,0.0,,,0.0,,0,0.0,0.0,0.0,0.0,,0.0,0.0,,0,0,0,,0,0,0.0,,,0.0,,0,-0.0,-0.0,-0.0,-0.0,,0.0,-5.625,,0,2,1,,0,1,0.0,0.0,0.0,0.0,0,,,0,,0,0,'',0,,1,0,0,0,0,,0.0,,0,-0.0,-0.0,-0.0,-0.0,,0.0,0.0,,1,0,0,0,0,,0.0,,0,-0.0,-0.0,-0.0,-0.0,,0.0,0.0,0,0
1620811959995969254,,,0,,0,0,'',0,0.0,0,,,46.15999984741211,,0,1.0733000040054321,-0.021118000149726868,0.00021499999274965376,-1.8709999949351186e-06,,0.0,2.0,,236,2,1,,0,2,0.0,,,40.369998931884766,,0,-2.0329999923706055,-0.005998999811708927,-6.0999998822808266e-05,-1.96199994206836e-06,,0.0,-2.0,,232,2,1,,0,1,0.0,,,0.0,,0,0.0,0.0,0.0,0.0,,0.0,0.0,,0,0,0,,0,0,0.0,,,0.0,,0,-0.0,-0.0,-0.0,-0.0,,0.0,-5.625,,0,2,1,,0,1,0.0,0.0,0.0,0.0,0,,,0,,0,0,'',0,,1,0,0,0,0,,0.0,,0,-0.0,-0.0,-0.0,-0.0,,0.0,0.0,,1,0,0,0,0,,0.0,,0,-0.0,-0.0,-0.0,-0.0,,0.0,0.0,0,0
1620811960045984204,,,0,,0,0,'',0,0.0,0,,,45.189998626708984,,0,1.035599946975708,-0.018861999735236168,0.00021100000594742596,-2.696999899853836e-06,,0.0,2.0,,236,2,1,,0,2,0.0,,,41.27000045776367,,0,-2.033900022506714,-0.005644999910145998,-6.70000008540228e-05,-2.4369999209739035e-06,,0.0,-2.0,,232,2,1,,0,1,0.0,,,0.0,,0,0.0,0.0,0.0,0.0,,0.0,0.0,,0,0,0,,0,0,0.0,,,0.0,,0,-0.0,-0.0,-0.0,-0.0,,0.0,-5.625,,0,2,1,,0,1,0.0,0.0,0.0,0.0,0,,,0,,0,0,'',0,,1,0,0,0,0,,0.0,,0,-0.0,-0.0,-0.0,-0.0,,0.0,0.0,,1,0,0,0,0,,0.0,,0,-0.0,-0.0,-0.0,-0.0,,0.0,0.0,0,0
1620811960095934989,,,0,,0,0,'',0,0.0,0,,,45.189998626708984,,0,1.0263999700546265,-0.018655000254511833,0.00020700000459328294,-2.696999899853836e-06,,0.0,2.0,,236,2,1,,0,2,0.0,,,41.27000045776367,,0,-2.0367000102996826,-0.005714000202715397,-7.100000220816582e-05,-2.4369999209739035e-06,,0.0,-2.0,,232,2,1,,0,1,0.0,,,0.0,,0,0.0,0.0,0.0,0.0,,0.0,0.0,,0,0,0,,0,0,0.0,,,0.0,,0,-0.0,-0.0,-0.0,-0.0,,0.0,-5.625,,0,2,1,,0,1,0.0,0.0,0.0,0.0,0,,,0,,0,0,'',0,,1,0,0,0,0,,0.0,,0,-0.0,-0.0,-0.0,-0.0,,0.0,0.0,,1,0,0,0,0,,0.0,,0,-0.0,-0.0,-0.0,-0.0,,0.0,0.0,0,0
1620811960146007029,,,0,,0,0,'',0,0.0,0,,,44.220001220703125,,0,1.0092999935150146,-0.014328000135719776,0.00019700000120792538,-4.551000074570766e-06,,0.0,2.0,,236,2,1,,0,2,0.0,,,41.52000045776367,,0,-2.041300058364868,-0.006436999887228012,-6.900000153109431e-05,-1.9550000160961645e-06,,0.0,-2.0,,232,2,1,,0,1,0.0,,,40.16999816894531,,0,4.234600067138672,-0.027772000059485435,-9.999999974752427e-07,6.779999921491253e-07,,0.0,5.625,,240,2,1,,0,1,0.0,,,0.0,,0,-0.0,-0.0,-0.0,-0.0,,0.0,-5.625,,0,0,1,,0,1,0.0,0.0,0.0,0.0,0,,,0,,0,0,'',0,,1,0,0,0,0,,0.0,,0,-0.0,-0.0,-0.0,-0.0,,0.0,0.0,,1,0,0,0,0,,0.0,,0,-0.0,-0.0,-0.0,-0.0,,0.0,0.0,0,0
1620811960195870018,,,0,,0,0,'',0,0.0,0,,,44.220001220703125,,0,1.0024000406265259,-0.014201999641954899,0.0001900000061141327,-4.551000074570766e-06,,0.0,2.0,,236,2,1,,0,2,0.0,,,41.52000045776367,,0,-2.0443999767303467,-0.006566999945789576,-7.200000254670158e-05,-1.9550000160961645e-06,,0.0,-2.0,,232,2,1,,0,1,0.0,,,40.16999816894531,,0,4.221199989318848,-0.02783600054681301,-0.0,6.779999921491253e-07,,0.0,5.625,,240,2,1,,0,1,0.0,,,0.0,,0,-0.0,-0.0,-0.0,-0.0,,0.0,-5.625,,0,0,1,,0,1,0.0,0.0,0.0,0.0,0,,,0,,0,0,'',0,,1,0,0,0,0,,0.0,,0,-0.0,-0.0,-0.0,-0.0,,0.0,0.0,,1,0,0,0,0,,0.0,,0,-0.0,-0.0,-0.0,-0.0,,0.0,0.0,0,0
1620811960245966287,,,0,,0,0,'',0,0.0,0,,,44.72999954223633,,0,0.9889000058174133,-0.011233000084757805,0.00017800000205170363,-4.983000053471187e-06,,0.0,2.0,,236,2,1,,0,2,0.0,,,45.88999938964844,,0,-2.0546000003814697,-0.008119000121951103,-7.500000356230885e-05,-2.4829998892528238e-06,,0.0,-2.0,,232,2,1,,0,1,0.0,,,42.5,,0,4.212200164794922,-0.02674799971282482,2.300000051036477e-05,4.169000021647662e-06,,0.0,5.625,,240,2,1,,0,1,0.0,,,0.0,,0,-0.0,-0.0,-0.0,-0.0,,0.0,-5.625,,0,0,1,,0,1,0.0,0.0,0.0,0.0,0,,,0,,0,0,'',0,,1,0,0,0,0,,0.0,,0,-0.0,-0.0,-0.0,-0.0,,0.0,0.0,,1,0,0,0,0,,0.0,,0,-0.0,-0.0,-0.0,-0.0,,0.0,0.0,0,0
1620811960296010542,,,0,,0,0,'',0,0.0,0,,,44.72999954223633,,0,0.9835000038146973,-0.011122000403702259,0.00017100000695791095,-4.983000053471187e-06,,0.0,2.0,,236,2,1,,0,2,0.0,,,45.88999938964844,,0,-2.058500051498413,-0.008252999745309353,-7.899999764049426e-05,-2.4829998892528238e-06,,0.0,-2.0,,232,2,1,,0,1,0.0,,,42.5,,0,4.1992998123168945,-0.02677999995648861,2.9999999242136255e-05,4.169000021647662e-06,,0.0,5.625,,240,2,1,,0,1,0.0,,,0.0,,0,-0.0,-0.0,-0.0,-0.0,,0.0,-5.625,,0,0,1,,0,1,0.0,0.0,0.0,0.0,0,,,0,,0,0,'',0,,1,0,0,0,0,,0.0,,0,-0.0,-0.0,-0.0,-0.0,,0.0,0.0,,1,0,0,0,0,,0.0,,0,-0.0,-0.0,-0.0,-0.0,,0.0,0.0,0,0
1620811960345987934,,,0,,0,0,'',0,0.0,0,,,43.040000915527344,,0,1.003100037574768,-0.00860700011253357,0.00015799999528098851,-6.1350001487880945e-06,,0.0,2.0,,236,2,1,,0,2,0.0,,,44.90999984741211,,0,-2.0799999237060547,-0.010005000047385693,-7.699999696342275e-05,-1.0410000186311663e-06,,0.0,-2.0,,232,2,1,,0,1,0.0,,,42.59000015258789,,0,4.202099800109863,-0.024949999526143074,3.7000001611886546e-05,4.447999799594982e-06,,0.0,5.625,,240,2,1,,0,1,0.0,,,0.0,,0,-0.0,-0.0,-0.0,-0.0,,0.0,-5.625,,0,0,1,,0,1,0.0,0.0,0.0,0.0,0,,,0,,0,0,'',0,,1,0,0,0,0,,0.0,,0,-0.0,-0.0,-0.0,-0.0,,0.0,0.0,,1,0,0,0,0,,0.0,,0,-0.0,-0.0,-0.0,-0.0,,0.0,0.0,0,0
1620811960396097073,,,0,,0,0,'',0,0.0,0,,,43.040000915527344,,0,1.001099944114685,-0.008533000014722347,0.00015300000086426735,-6.1350001487880945e-06,,0.0,2.0,,236,2,1,,0,2,0.0,,,44.90999984741211,,0,-2.0822999477386475,-0.010042999871075153,-7.699999696342275e-05,-1.0410000186311663e-06,,0.0,-2.0,,232,2,1,,0,1,0.0,,,42.59000015258789,,0,4.196199893951416,-0.02493100054562092,3.9999998989515007e-05,4.447999799594982e-06,,0.0,5.625,,240,2,1,,0,1,0.0,,,0.0,,0,-0.0,-0.0,-0.0,-0.0,,0.0,-5.625,,0,0,1,,0,1,0.0,0.0,0.0,0.0,0,,,0,,0,0,'',0,,1,0,0,0,0,,0.0,,0,-0.0,-0.0,-0.0,-0.0,,0.0,0.0,,1,0,0,0,0,,0.0,,0,-0.0,-0.0,-0.0,-0.0,,0.0,0.0,0,0
1620811960445929727,,,0,,0,0,'',0,0.0,0,,,43.040000915527344,,0,0.9969000220298767,-0.008383999578654766,0.00014400000509340316,-6.1350001487880945e-06,,0.0,2.0,,236,2,1,,0,2,0.0,,,44.90999984741211,,0,-2.0873000621795654,-0.010120999999344349,-7.899999764049426e-05,-1.0410000186311663e-06,,0.0,-2.0,,232,2,1,,0,1,0.0,,,42.59000015258789,,0,4.183800220489502,-0.024887999519705772,4.600000102072954e-05,4.447999799594982e-06,,0.0,5.625,,240,2,1,,0,1,0.0,,,0.0,,0,-0.0,-0.0,-0.0,-0.0,,0.0,-5.625,,0,0,1,,0,1,0.0,0.0,0.0,0.0,0,,,0,,0,0,'',0,,1,0,0,0,0,,0.0,,0,-0.0,-0.0,-0.0,-0.0,,0.0,0.0,,1,0,0,0,0,,0.0,,0,-0.0,-0.0,-0.0,-0.0,,0.0,0.0,0,0
1620811960496074999,,,0,,0,0,'',0,0.0,0,,,43.43000030517578,,0,1.0326999425888062,-0.005032999906688929,0.00012599999899975955,-7.157999789342284e-06,,0.0,2.0,,236,2,1,,0,2,0.0,,,46.959999084472656,,0,-2.1105000972747803,-0.01382100023329258,-7.400000322377309e-05,-8.38999994812184e-07,,0.0,-2.0,,232,2,1,,0,1,0.0,,,45.31999969482422,,0,4.1793999671936035,-0.022443000227212906,7.999999797903001e-05,6.774000212317333e-06,,0.0,5.625,,240,2,1,,0,1,0.0,,,0.0,,0,-0.0,-0.0,-0.0,-0.0,,0.0,-5.625,,0,0,1,,0,1,0.0,0.0,0.0,0.0,0,,,0,,0,0,'',0,,1,0,0,0,0,,0.0,,0,-0.0,-0.0,-0.0,-0.0,,0.0,0.0,,1,0,0,0,0,,0.0,,0,-0.0,-0.0,-0.0,-0.0,,0.0,0.0,0,0
1620811960546086563,,,0,,0,0,'',0,0.0,0,,,43.43000030517578,,0,1.0302000045776367,-0.004912000149488449,0.00011600000289035961,-7.157999789342284e-06,,0.0,2.0,,236,2,1,,0,2,0.0,,,46.959999084472656,,0,-2.1173999309539795,-0.013895000331103802,-7.500000356230885e-05,-8.38999994812184e-07,,0.0,-2.0,,232,2,1,,0,1,0.0,,,45.31999969482422,,0,4.168300151824951,-0.0223580002784729,8.900000102585182e-05,6.774000212317333e-06,,0.0,5.625,,240,2,1,,0,1,0.0,,,0.0,,0,-0.0,-0.0,-0.0,-0.0,,0.0,-5.625,,0,0,1,,0,1,0.0,0.0,0.0,0.0,0,,,0,,0,0,'',0,,1,0,0,0,0,,0.0,,0,-0.0,-0.0,-0.0,-0.0,,0.0,0.0,,1,0,0,0,0,,0.0,,0,-0.0,-0.0,-0.0,-0.0,,0.0,0.0,0,0
1620811960595863861,,,0,,0,0,'',0,0.0,0,,,42.849998474121094,,0,1.0336999893188477,-0.004215000197291374,0.00010299999848939478,-7.034000191197265e-06,,0.0,2.0,,236,2,1,,0,2,0.0,,,45.970001220703125,,0,-2.1398000717163086,-0.015379000455141068,-6.900000153109431e-05,8.000000093488779e-07,,0.0,-2.0,,232,2,1,,0,1,0.0,,,44.33000183105469,,0,4.162899971008301,-0.019872000440955162,0.00011000000085914508,6.331999884423567e-06,,0.0,5.625,,240,2,1,,0,1,0.0,,,0.0,,0,-0.0,-0.0,-0.0,-0.0,,0.0,-5.625,,0,0,1,,0,1,0.0,0.0,0.0,0.0,0,,,0,,0,0,'',0,,1,0,0,0,0,,0.0,,0,-0.0,-0.0,-0.0,-0.0,,0.0,0.0,,1,0,0,0,0,,0.0,,0,-0.0,-0.0,-0.0,-0.0,,0.0,0.0,0,0
1620811960645943969,,,0,,0,0,'',0,0.0,0,,,42.849998474121094,,0,1.031599998474121,-0.0041160001419484615,9.300000237999484e-05,-7.034000191197265e-06,,0.0,2.0,,236,2,1,,0,2,0.0,,,45.970001220703125,,0,-2.147599935531616,-0.015448999591171741,-6.800000119255856e-05,8.000000093488779e-07,,0.0,-2.0,,232,2,1,,0,1,0.0,,,44.33000183105469,,0,4.1529998779296875,-0.019757000729441643,0.00011999999696854502,6.331999884423567e-06,,0.0,5.625,,240,2,1,,0,1,0.0,,,0.0,,0,-0.0,-0.0,-0.0,-0.0,,0.0,-5.625,,0,0,1,,0,1,0.0,0.0,0.0,0.0,0,,,0,,0,0,'',0,,1,0,0,0,0,,0.0,,0,-0.0,-0.0,-0.0,-0.0,,0.0,0.0,,1,0,0,0,0,,0.0,,0,-0.0,-0.0,-0.0,-0.0,,0.0,0.0,0,0
1620811960695847513,,,0,,0,0,'',0,0.0,0,,,43.040000915527344,,0,1.03410005569458,-0.004815000109374523,8.900000102585182e-05,-6.5139997786900494e-06,,0.0,2.0,,236,2,1,,0,2,0.0,,,44.75,,0,-2.1507999897003174,-0.014328000135719776,-6.900000153109431e-05,1.2299999525566818e-06,,0.0,-2.0,,232,2,1,,0,1,0.0,,,43.349998474121094,,0,4.487400054931641,-0.020759999752044678,-0.00022600000374950469,8.402999810641631e-06,,0.0,5.625,,240,2,1,,0,1,0.0,,,0.0,,0,-0.0,-0.0,-0.0,-0.0,,0.0,-5.625,,0,0,1,,0,1,0.0,0.0,0.0,0.0,0,,,0,,0,0,'',0,,4,0,0,241,2,,37.79999923706055,,0,-2.8164000511169434,-0.024348000064492226,0.000534999999217689,-6.547999873873778e-06,,0.0,0.0,,1,0,0,0,0,,0.0,,0,-0.0,-0.0,-0.0,-0.0,,0.0,0.0,0,0
1620811960745921186,,,0,,0,0,'',0,0.0,0,,,43.040000915527344,,0,1.0318000316619873,-0.004668000154197216,7.999999797903001e-05,-6.5139997786900494e-06,,0.0,2.0,,236,2,1,,0,2,0.0,,,44.75,,0,-2.1579999923706055,-0.014336000196635723,-6.70000008540228e-05,1.2299999525566818e-06,,0.0,-2.0,,232,2,1,,0,1,0.0,,,43.349998474121094,,0,4.476900100708008,-0.020920999348163605,-0.00021399999968707561,8.402999810641631e-06,,0.0,5.625,,240,2,1,,0,1,0.0,,,0.0,,0,-0.0,-0.0,-0.0,-0.0,,0.0,-5.625,,0,0,1,,0,1,0.0,0.0,0.0,0.0,0,,,0,,0,0,'',0,,4,0,0,241,2,,37.79999923706055,,0,-2.8164000511169434,-0.024348000064492226,0.000534999999217689,-6.547999873873778e-06,,0.0,0.0,,1,0,0,0,0,,0.0,,0,-0.0,-0.0,-0.0,-0.0,,0.0,0.0,0,0
1620811960796043224,,,0,,0,0,'',0,0.0,0,,,46.650001525878906,,0,1.037600040435791,-0.005268999841064215,7.200000254670158e-05,-5.481999778567115e-06,,0.0,2.0,,236,2,1,,0,2,0.0,,,45.43000030517578,,0,-2.156899929046631,-0.012519000098109245,-7.200000254670158e-05,1.8699999770888098e-07,,0.0,-2.0,,232,2,1,,0,1,0.0,,,47.119998931884766,,0,4.456900119781494,-0.019886000081896782,-0.0001900000061141327,6.966000000829808e-06,,0.0,5.625,,240,2,1,,0,1,0.0,,,0.0,,0,-0.0,-0.0,-0.0,-0.0,,0.0,-5.625,,0,0,1,,0,1,0.0,0.0,0.0,0.0,0,,,0,,0,0,'',0,,4,0,0,241,2,,41.88999938964844,,0,-2.8006999492645264,-0.020532000809907913,0.00048600000445730984,-7.575999916298315e-06,,0.0,0.0,,1,0,0,0,0,,0.0,,0,-0.0,-0.0,-0.0,-0.0,,0.0,0.0,0,0
1620811960845885745,,,0,,0,0,'',0,0.0,0,,,46.650001525878906,,0,1.034999966621399,-0.005200000014156103,6.399999983841553e-05,-5.481999778567115e-06,,0.0,2.0,,236,2,1,,0,2,0.0,,,45.43000030517578,,0,-2.1631999015808105,-0.012593000195920467,-7.200000254670158e-05,1.8699999770888098e-07,,0.0,-2.0,,232,2,1,,0,1,0.0,,,47.119998931884766,,0,4.446899890899658,-0.02007099986076355,-0.00018000000272877514,6.966000000829808e-06,,0.0,5.625,,240,2,1,,0,1,0.0,,,0.0,,0,-0.0,-0.0,-0.0,-0.0,,0.0,-5.625,,0,0,1,,0,1,0.0,0.0,0.0,0.0,0,,,0,,0,0,'',0,,4,0,0,241,2,,41.88999938964844,,0,-2.8006999492645264,-0.020532000809907913,0.00048600000445730984,-7.575999916298315e-06,,0.0,0.0,,1,0,0,0,0,,0.0,,0,-0.0,-0.0,-0.0,-0.0,,0.0,0.0,0,0
1620811960895931584,,,0,,0,0,'',0,0.0,0,,,46.650001525878906,,0,1.0336999893188477,-0.005166999995708466,5.999999848427251e-05,-5.481999778567115e-06,,0.0,2.0,,236,2,1,,0,2,0.0,,,45.43000030517578,,0,-2.1663999557495117,-0.012628999538719654,-7.100000220816582e-05,1.8699999770888098e-07,,0.0,-2.0,,232,2,1,,0,1,0.0,,,47.119998931884766,,0,4.441800117492676,-0.02016099914908409,-0.0001740000006975606,6.966000000829808e-06,,0.0,5.625,,240,2,1,,0,1,0.0,,,0.0,,0,-0.0,-0.0,-0.0,-0.0,,0.0,-5.625,,0,0,1,,0,1,0.0,0.0,0.0,0.0,0,,,0,,0,0,'',0,,4,0,0,241,2,,41.88999938964844,,0,-2.8006999492645264,-0.020532000809907913,0.00048600000445730984,-7.575999916298315e-06,,0.0,0.0,,1,0,0,0,0,,0.0,,0,-0.0,-0.0,-0.0,-0.0,,0.0,0.0,0,0
1620811960945930387,,,0,,0,0,'',0,0.0,0,,,45.0,,0,1.0427000522613525,-0.0062420000322163105,5.0999999075429514e-05,-5.600999884336488e-06,,0.0,2.0,,236,2,1,,0,2,0.0,,,46.099998474121094,,0,-2.1649999618530273,-0.010209999978542328,-7.79999973019585e-05,-1.4999999464748726e-08,,0.0,-2.0,,232,2,1,,0,1,0.0,,,46.66999816894531,,0,4.431300163269043,-0.02061700075864792,-0.00017100000695791095,5.411000074673211e-06,,0.0,5.625,,240,2,1,,0,1,0.0,,,0.0,,0,-0.0,-0.0,-0.0,-0.0,,0.0,-5.625,,0,0,1,,0,1,0.0,0.0,0.0,0.0,0,,,0,,0,0,'',0,,4,0,0,241,2,,40.88999938964844,,0,-2.7655999660491943,-0.018157999962568283,0.0003699999942909926,-4.921999789075926e-06,,0.0,0.0,,1,0,0,0,0,,0.0,,0,-0.0,-0.0,-0.0,-0.0,,0.0,0.0,0,0
1620811960995975012,,,0,,0,0,'',0,0.0,0,,,45.0,,0,1.0396000146865845,-0.0060720001347362995,4.199999966658652e-05,-5.600999884336488e-06,,0.0,2.0,,236,2,1,,0,2,0.0,,,46.099998474121094,,0,-2.1702001094818115,-0.010168000124394894,-7.79999973019585e-05,-1.4999999464748726e-08,,0.0,-2.0,,232,2,1,,0,1,0.0,,,46.66999816894531,,0,4.420899868011475,-0.020665999501943588,-0.00016399999731220305,5.411000074673211e-06,,0.0,5.625,,240,2,1,,0,1,0.0,,,0.0,,0,-0.0,-0.0,-0.0,-0.0,,0.0,-5.625,,0,0,1,,0,1,0.0,0.0,0.0,0.0,0,,,0,,0,0,'',0,,4,0,0,241,2,,40.88999938964844,,0,-2.7655999660491943,-0.018157999962568283,0.0003699999942909926,-4.921999789075926e-06,,0.0,0.0,,1,0,0,0,0,,0.0,,0,-0.0,-0.0,-0.0,-0.0,,0.0,0.0,0,0
1620811961045880737,,,0,,0,0,'',0,0.0,0,,,44.0,,0,1.0489000082015991,-0.0074800001457333565,3.7999998312443495e-05,-5.356000201572897e-06,,0.0,2.0,,236,2,1,,0,2,0.0,,,36.790000915527344,,0,-2.156599998474121,-0.0064849997870624065,-7.500000356230885e-05,2.2700000954500865e-06,,0.0,-2.0,,232,2,1,,0,1,0.0,,,45.66999816894531,,0,4.4131999015808105,-0.0224590003490448,-0.00017499999376013875,2.1910000214120373e-06,,0.0,5.625,,240,2,1,,0,1,0.0,,,0.0,,0,-0.0,-0.0,-0.0,-0.0,,0.0,-5.625,,0,0,1,,0,1,0.0,0.0,0.0,0.0,0,,,0,,0,0,'',0,,1,0,0,241,2,,39.88999938964844,,0,-2.7811999320983887,-0.017431000247597694,0.0003549999964889139,-4.921999789075926e-06,,0.0,0.0,,1,0,0,0,0,,0.0,,0,-0.0,-0.0,-0.0,-0.0,,0.0,0.0,0,0
1620811961095919784,,,0,,0,0,'',0,0.0,0,,,44.0,,0,1.0450999736785889,-0.007445000112056732,2.9999999242136255e-05,-5.356000201572897e-06,,0.0,2.0,,236,2,1,,0,2,0.0,,,36.790000915527344,,0,-2.159899950027466,-0.006560000125318766,-7.100000220816582e-05,2.2700000954500865e-06,,0.0,-2.0,,232,2,1,,0,1,0.0,,,45.66999816894531,,0,4.401800155639648,-0.02263600006699562,-0.00017100000695791095,2.1910000214120373e-06,,0.0,5.625,,240,2,1,,0,1,0.0,,,0.0,,0,-0.0,-0.0,-0.0,-0.0,,0.0,-5.625,,0,0,1,,0,1,0.0,0.0,0.0,0.0,0,,,0,,0,0,'',0,,1,0,0,241,2,,39.88999938964844,,0,-2.7811999320983887,-0.017431000247597694,0.0003549999964889139,-4.921999789075926e-06,,0.0,0.0,,1,0,0,0,0,,0.0,,0,-0.0,-0.0,-0.0,-0.0,,0.0,0.0,0,0
1620811961145924654,,,0,,0,0,'',0,0.0,0,,,45.599998474121094,,0,1.0749000310897827,-0.006821999792009592,3.400000059627928e-05,-3.2699999792384915e-06,,0.0,2.0,,236,2,1,,0,2,0.0,,,46.83000183105469,,0,-2.1700000762939453,-0.005925999954342842,-8.199999865610152e-05,-9.109999723477813e-07,,0.0,-2.0,,232,2,1,,0,1,0.0,,,46.86000061035156,,0,4.39900016784668,-0.022724000737071037,-0.0001539999939268455,7.298000127775595e-06,,0.0,5.625,,240,2,1,,0,1,0.0,,,0.0,,0,-0.0,-0.0,-0.0,-0.0,,0.0,-5.625,,0,0,1,,0,1,0.0,0.0,0.0,0.0,0,,,0,,0,0,'',0,,1,0,0,241,2,,38.88999938964844,,0,-2.7578001022338867,-0.017508000135421753,0.0002699999895412475,-4.902999990008539e-06,,0.0,0.0,,1,0,0,0,0,,0.0,,0,-0.0,-0.0,-0.0,-0.0,,0.0,0.0,0,0
1620811961195924544,,,0,,0,0,'',0,0.0,0,,,45.599998474121094,,0,1.0714999437332153,-0.00672899978235364,2.9000000722589903e-05,-3.2699999792384915e-06,,0.0,2.0,,236,2,1,,0,2,0.0,,,46.83000183105469,,0,-2.1730000972747803,-0.005948999896645546,-8.299999899463728e-05,-9.109999723477813e-07,,0.0,-2.0,,232,2,1,,0,1,0.0,,,46.86000061035156,,0,4.387400150299072,-0.022815000265836716,-0.00014400000509340316,7.298000127775595e-06,,0.0,5.625,,240,2,1,,0,1,0.0,,,0.0,,0,-0.0,-0.0,-0.0,-0.0,,0.0,-5.625,,0,0,1,,0,1,0.0,0.0,0.0,0.0,0,,,0,,0,0,'',0,,1,0,0,241,2,,38.88999938964844,,0,-2.7578001022338867,-0.017508000135421753,0.0002699999895412475,-4.902999990008539e-06,,0.0,0.0,,1,0,0,0,0,,0.0,,0,-0.0,-0.0,-0.0,-0.0,,0.0,0.0,0,0
1620811961245830323,,,0,,0,0,'',0,0.0,0,,,48.15999984741211,,0,1.1061999797821045,-0.0068350001238286495,2.9000000722589903e-05,-2.7099999897473026e-06,,0.0,2.0,,236,2,1,,0,2,0.0,,,50.0,,0,-2.198699951171875,-0.007259000092744827,-7.999999797903001e-05,3.309999954126397e-07,,0.0,-2.0,,232,2,1,,0,1,0.0,,,48.709999084472656,,0,4.3730998039245605,-0.02118300087749958,-0.0001230000052601099,8.551999599148985e-06,,0.0,5.625,,240,2,1,,0,1,0.0,,,0.0,,0,-0.0,-0.0,-0.0,-0.0,,0.0,-5.625,,0,0,1,,0,1,0.0,0.0,0.0,0.0,0,,,0,,0,0,'',0,,1,0,0,242,1,,13.050000190734863,,0,4.125,0.031005000695586205,0.0009670000290498137,2.4399998892477015e-06,,11.010000228881836,0.0,,4,0,0,241,2,,37.88999938964844,,0,-2.761699914932251,-0.01578100025653839,0.00024300000222865492,-3.007000032084761e-06,,0.0,0.0,0,0
