rosbagTimestamp,lane_markings,header,seq,stamp,secs,nsecs,frame_id,look_index,timeStamp,frameNum,host_left,state,long_distance_to_end,curve,model_degree,c0_position,c1_heading_angle,c2_curvature,c3_curvature_derivative,start_point,x,y,quality,id,track_status,quality,attr,color,continuity,width,host_right,state,long_distance_to_end,curve,model_degree,c0_position,c1_heading_angle,c2_curvature,c3_curvature_derivative,start_point,x,y,quality,id,track_status,quality,attr,color,continuity,width,neighbor_left,state,long_distance_to_end,curve,model_degree,c0_position,c1_heading_angle,c2_curvature,c3_curvature_derivative,start_point,x,y,quality,id,track_status,quality,attr,color,continuity,width,neighbor_right,state,long_distance_to_end,curve,model_degree,c0_position,c1_heading_angle,c2_curvature,c3_curvature_derivative,start_point,x,y,quality,id,track_status,quality,attr,color,continuity,width,host_lane_width,left_lane_width,right_lane_width,ego_lane_change_status,road_edges,Header,seq,stamp,secs,nsecs,frame_id,look_index,left_road_edge,quality,reserved,type,id,traceStatus,roadEdgeCurve,long_distance_to_end,curve,model_degree,c0_position,c1_heading_angle,c2_curvature,c3_curvature_derivative,start_point,x,y,right_road_edge,quality,reserved,type,id,traceStatus,roadEdgeCurve,long_distance_to_end,curve,model_degree,c0_position,c1_heading_angle,c2_curvature,c3_curvature_derivative,start_point,x,y,error_flag,detected_edge_cnt
1620888969666240416,,,0,,0,0,'',0,0.0,0,,,34.5,,0,2.0829000473,-0.0290239993483,0.00049200002104,-9.12000018616e-07,,7.40000009537,2.0,,197,2,1,,0,11,0.0,,,48.6300010681,,0,-1.18320000172,-0.0118589997292,0.000203000003239,-2.48299988925e-06,,0.0,-2.0,,198,2,1,,0,2,0.0,,,0.0,,0,0.0,0.0,0.0,0.0,,0.0,0.0,,0,0,0,,0,0,0.0,,,0.0,,0,-0.0,-0.0,-0.0,-0.0,,0.0,-5.625,,0,2,1,,0,1,0.0,0.0,0.0,0.0,0,,,0,,0,0,'',0,,1,0,0,189,2,,41.3600006104,,0,2.35150003433,-0.0102570001036,0.000111000001198,5.29299995833e-06,,0.0,0.0,,4,0,0,196,2,,39.5800018311,,0,-5.42959976196,-0.067322999239,0.00174700003117,-9.66799962043e-06,,8.63000011444,0.0,0,0
1620888969716081685,,,0,,0,0,'',0,0.0,0,,,34.5,,0,2.07369995117,-0.0291329994798,0.000491000013426,-9.12000018616e-07,,7.40000009537,2.0,,197,2,1,,0,11,0.0,,,48.6300010681,,0,-1.18700003624,-0.0121520003304,0.000199999994948,-2.48299988925e-06,,0.0,-2.0,,198,2,1,,0,2,0.0,,,0.0,,0,0.0,0.0,0.0,0.0,,0.0,0.0,,0,0,0,,0,0,0.0,,,0.0,,0,-0.0,-0.0,-0.0,-0.0,,0.0,-5.625,,0,2,1,,0,1,0.0,0.0,0.0,0.0,0,,,0,,0,0,'',0,,1,0,0,189,2,,41.3600006104,,0,2.35150003433,-0.0102570001036,0.000111000001198,5.29299995833e-06,,0.0,0.0,,4,0,0,196,2,,39.5800018311,,0,-5.42959976196,-0.067322999239,0.00174700003117,-9.66799962043e-06,,8.63000011444,0.0,0,0
1620888969766103897,,,0,,0,0,'',0,0.0,0,,,33.8600006104,,0,2.08220005035,-0.0302709992975,0.000586999987718,-3.80999995286e-06,,6.76000022888,2.0,,197,2,1,,0,1,0.0,,,49.0999984741,,0,-1.20319998264,-0.0126040000468,0.000216000000364,-2.69099996331e-06,,0.0,-2.0,,198,2,1,,0,2,0.0,,,0.0,,0,0.0,0.0,0.0,0.0,,0.0,0.0,,0,0,0,,0,0,0.0,,,0.0,,0,-0.0,-0.0,-0.0,-0.0,,0.0,-5.625,,0,2,1,,0,1,0.0,0.0,0.0,0.0,0,,,0,,0,0,'',0,,1,0,0,189,2,,41.3600006104,,0,2.35150003433,-0.0102570001036,0.000111000001198,5.29299995833e-06,,0.0,0.0,,4,0,0,196,2,,39.5800018311,,0,-5.42959976196,-0.067322999239,0.00174700003117,-9.66799962043e-06,,8.63000011444,0.0,0,0
1620888969816287872,,,0,,0,0,'',0,0.0,0,,,33.8600006104,,0,2.0775001049,-0.0302649997175,0.000584999972489,-3.80999995286e-06,,6.76000022888,2.0,,197,2,1,,0,1,0.0,,,49.0999984741,,0,-1.20510005951,-0.0127140004188,0.00021499999275,-2.69099996331e-06,,0.0,-2.0,,198,2,1,,0,2,0.0,,,0.0,,0,0.0,0.0,0.0,0.0,,0.0,0.0,,0,0,0,,0,0,0.0,,,0.0,,0,-0.0,-0.0,-0.0,-0.0,,0.0,-5.625,,0,2,1,,0,1,0.0,0.0,0.0,0.0,0,,,0,,0,0,'',0,,1,0,0,189,2,,40.7099990845,,0,2.42179989815,-0.0024689999409,9.89999971353e-05,-2.91199989988e-06,,0.0,0.0,,1,0,0,196,2,,38.9300003052,,0,-5.48040008545,-0.0664480030537,0.00174099998549,-1.34109995997e-05,,7.98999977112,0.0,0,0
1620888969866020374,,,0,,0,0,'',0,0.0,0,,,33.8600006104,,0,2.06780004501,-0.0302590001374,0.000581000000238,-3.80999995286e-06,,6.76000022888,2.0,,197,2,1,,0,1,0.0,,,49.0999984741,,0,-1.2092000246,-0.0129439998418,0.00021199999901,-2.69099996331e-06,,0.0,-2.0,,198,2,1,,0,2,0.0,,,0.0,,0,0.0,0.0,0.0,0.0,,0.0,0.0,,0,0,0,,0,0,0.0,,,0.0,,0,-0.0,-0.0,-0.0,-0.0,,0.0,-5.625,,0,2,1,,0,1,0.0,0.0,0.0,0.0,0,,,0,,0,0,'',0,,1,0,0,189,2,,40.7099990845,,0,2.42179989815,-0.0024689999409,9.89999971353e-05,-2.91199989988e-06,,0.0,0.0,,1,0,0,196,2,,38.9300003052,,0,-5.48040008545,-0.0664480030537,0.00174099998549,-1.34109995997e-05,,7.98999977112,0.0,0,0
1620888969916120966,,,0,,0,0,'',0,0.0,0,,,35.8400001526,,0,2.05480003357,-0.0296439994127,0.000635000003967,-4.98999997944e-06,,6.11999988556,2.0,,197,2,1,,0,1,0.0,,,50.0,,0,-1.21689999104,-0.0128690004349,0.000220999994781,-3.22200003211e-06,,0.0,-2.0,,198,2,1,,0,2,0.0,,,0.0,,0,0.0,0.0,0.0,0.0,,0.0,0.0,,0,0,0,,0,0,0.0,,,0.0,,0,-0.0,-0.0,-0.0,-0.0,,0.0,-5.625,,0,2,1,,0,1,0.0,0.0,0.0,0.0,0,,,0,,0,0,'',0,,1,0,0,189,2,,40.0800018311,,0,2.42960000038,-0.00574899977073,9.69999964582e-05,-4.72000010632e-06,,0.0,0.0,,4,0,0,196,2,,38.2900009155,,0,-5.52339982986,-0.0616759993136,0.0016680000117,-1.36460002977e-05,,7.34999990463,0.0,0,0
1620888969966063232,,,0,,0,0,'',0,0.0,0,,,35.8400001526,,0,2.04539990425,-0.0296090003103,0.000630000024103,-4.98999997944e-06,,6.11999988556,2.0,,197,2,1,,0,1,0.0,,,50.0,,0,-1.22099995613,-0.0130960000679,0.000216999993427,-3.22200003211e-06,,0.0,-2.0,,198,2,1,,0,2,0.0,,,0.0,,0,0.0,0.0,0.0,0.0,,0.0,0.0,,0,0,0,,0,0,0.0,,,0.0,,0,-0.0,-0.0,-0.0,-0.0,,0.0,-5.625,,0,2,1,,0,1,0.0,0.0,0.0,0.0,0,,,0,,0,0,'',0,,1,0,0,189,2,,40.0800018311,,0,2.42960000038,-0.00574899977073,9.69999964582e-05,-4.72000010632e-06,,0.0,0.0,,4,0,0,196,2,,38.2900009155,,0,-5.52339982986,-0.0616759993136,0.0016680000117,-1.36460002977e-05,,7.34999990463,0.0,0,0
1620888970016012429,,,0,,0,0,'',0,0.0,0,,,38.1699981689,,0,2.0271999836,-0.0303930006921,0.000694999995176,-6.12900021224e-06,,5.5,2.0,,197,2,1,,0,1,0.0,,,50.0,,0,-1.22019994259,-0.0125660002232,0.000205999996979,-3.85700013794e-06,,0.0,-2.0,,198,2,1,,0,2,0.0,,,0.0,,0,0.0,0.0,0.0,0.0,,0.0,0.0,,0,0,0,,0,0,0.0,,,0.0,,0,-0.0,-0.0,-0.0,-0.0,,0.0,-5.625,,0,2,1,,0,1,0.0,0.0,0.0,0.0,0,,,0,,0,0,'',0,,1,0,0,189,2,,39.9099998474,,0,2.39840006828,-0.0121020004153,9.60000033956e-05,-2.50800007962e-06,,0.0,0.0,,1,0,0,196,2,,38.2999992371,,0,-5.56640005112,-0.0608350001276,0.00161399994977,-1.52989996423e-05,,6.71000003815,0.0,0,0
1620888970066054973,,,0,,0,0,'',0,0.0,0,,,38.1699981689,,0,2.01760005951,-0.0306289996952,0.000689000007696,-6.12900021224e-06,,5.5,2.0,,197,2,1,,0,1,0.0,,,50.0,,0,-1.2242000103,-0.0131090003997,0.000203000003239,-3.85700013794e-06,,0.0,-2.0,,198,2,1,,0,2,0.0,,,0.0,,0,0.0,0.0,0.0,0.0,,0.0,0.0,,0,0,0,,0,0,0.0,,,0.0,,0,-0.0,-0.0,-0.0,-0.0,,0.0,-5.625,,0,2,1,,0,1,0.0,0.0,0.0,0.0,0,,,0,,0,0,'',0,,1,0,0,189,2,,39.9099998474,,0,2.39840006828,-0.0121020004153,9.60000033956e-05,-2.50800007962e-06,,0.0,0.0,,1,0,0,196,2,,38.2999992371,,0,-5.56640005112,-0.0608350001276,0.00161399994977,-1.52989996423e-05,,6.71000003815,0.0,0,0
1620888970116093718,,,0,,0,0,'',0,0.0,0,,,37.5499992371,,0,2.00909996033,-0.0299030002207,0.00065000000177,-5.86799978919e-06,,4.86999988556,2.0,,197,2,1,,0,1,0.0,,,50.0,,0,-1.22710001469,-0.0144450003281,0.000197000001208,-3.85800012737e-06,,0.0,-2.0,,198,2,1,,0,2,0.0,,,0.0,,0,0.0,0.0,0.0,0.0,,0.0,0.0,,0,0,0,,0,0,0.0,,,0.0,,0,-0.0,-0.0,-0.0,-0.0,,0.0,-5.625,,0,2,1,,0,1,0.0,0.0,0.0,0.0,0,,,0,,0,0,'',0,,1,0,0,189,2,,39.2900009155,,0,2.4061999321,-0.0112629998475,8.80000006873e-05,-4.31699982073e-06,,0.0,0.0,,1,0,0,196,2,,37.9599990845,,0,-5.59759998322,-0.0550389997661,0.00161000003573,-1.15929997264e-05,,6.07999992371,0.0,0,0
1620888970166103860,,,0,,0,0,'',0,0.0,0,,,37.5499992371,,0,1.99979996681,-0.0304659996182,0.00064400001429,-5.86799978919e-06,,4.86999988556,2.0,,197,2,1,,0,1,0.0,,,50.0,,0,-1.23169994354,-0.0152839999646,0.000192999999854,-3.85800012737e-06,,0.0,-2.0,,198,2,1,,0,2,0.0,,,0.0,,0,0.0,0.0,0.0,0.0,,0.0,0.0,,0,0,0,,0,0,0.0,,,0.0,,0,-0.0,-0.0,-0.0,-0.0,,0.0,-5.625,,0,2,1,,0,1,0.0,0.0,0.0,0.0,0,,,0,,0,0,'',0,,1,0,0,189,2,,39.2900009155,,0,2.4061999321,-0.0112629998475,8.80000006873e-05,-4.31699982073e-06,,0.0,0.0,,1,0,0,196,2,,37.9599990845,,0,-5.59759998322,-0.0550389997661,0.00161000003573,-1.15929997264e-05,,6.07999992371,0.0,0,0
1620888970216071756,,,0,,0,0,'',0,0.0,0,,,40.6100006104,,0,1.99520003796,-0.0272969994694,0.000589000002947,-6.01600004302e-06,,4.25,2.0,,197,2,1,,0,1,0.0,,,50.0,,0,-1.23160004616,-0.0153769999743,0.000182999996468,-3.82500002161e-06,,0.0,-2.0,,198,2,1,,0,2,0.0,,,0.0,,0,0.0,0.0,0.0,0.0,,0.0,0.0,,0,0,0,,0,0,0.0,,,0.0,,0,-0.0,-0.0,-0.0,-0.0,,0.0,-5.625,,0,2,1,,0,1,0.0,0.0,0.0,0.0,0,,,0,,0,0,'',0,,1,0,0,189,2,,38.6699981689,,0,2.38280010223,-0.0142559995875,8.49999996717e-05,-1.88199999229e-06,,0.0,0.0,,1,0,0,196,2,,36.8899993896,,0,-5.62890005112,-0.0530820004642,0.00153500004672,-1.51300000653e-05,,5.44999980927,0.0,0,0
1620888970265986122,,,0,,0,0,'',0,0.0,0,,,40.6100006104,,0,1.98660004139,-0.0275420006365,0.000583000015467,-6.01600004302e-06,,4.25,2.0,,197,2,1,,0,1,0.0,,,50.0,,0,-1.2365000248,-0.0158740002662,0.000178999995114,-3.82500002161e-06,,0.0,-2.0,,198,2,1,,0,2,0.0,,,0.0,,0,0.0,0.0,0.0,0.0,,0.0,0.0,,0,0,0,,0,0,0.0,,,0.0,,0,-0.0,-0.0,-0.0,-0.0,,0.0,-5.625,,0,2,1,,0,1,0.0,0.0,0.0,0.0,0,,,0,,0,0,'',0,,1,0,0,189,2,,38.6699981689,,0,2.38280010223,-0.0142559995875,8.49999996717e-05,-1.88199999229e-06,,0.0,0.0,,1,0,0,196,2,,36.8899993896,,0,-5.62890005112,-0.0530820004642,0.00153500004672,-1.51300000653e-05,,5.44999980927,0.0,0,0
1620888970316051045,,,0,,0,0,'',0,0.0,0,,,40.6100006104,,0,1.98230004311,-0.0276670008898,0.000579999992624,-6.01600004302e-06,,4.25,2.0,,197,2,1,,0,1,0.0,,,50.0,,0,-1.23899996281,-0.0161240007728,0.000178000002052,-3.82500002161e-06,,0.0,-2.0,,198,2,1,,0,2,0.0,,,0.0,,0,0.0,0.0,0.0,0.0,,0.0,0.0,,0,0,0,,0,0,0.0,,,0.0,,0,-0.0,-0.0,-0.0,-0.0,,0.0,-5.625,,0,2,1,,0,1,0.0,0.0,0.0,0.0,0,,,0,,0,0,'',0,,1,0,0,189,2,,38.6699981689,,0,2.38280010223,-0.0142559995875,8.49999996717e-05,-1.88199999229e-06,,0.0,0.0,,1,0,0,196,2,,36.8899993896,,0,-5.62890005112,-0.0530820004642,0.00153500004672,-1.51300000653e-05,,5.44999980927,0.0,0,0
1620888970366125594,,,0,,0,0,'',0,0.0,0,,,40.5499992371,,0,1.96770000458,-0.0269399993122,0.000547999981791,-5.35299977855e-06,,3.6400001049,2.0,,197,2,1,,0,1,0.0,,,50.0,,0,-1.25859999657,-0.0168869998306,0.000178999995114,-3.26800000039e-06,,0.0,-2.0,,198,2,1,,0,2,0.0,,,0.0,,0,0.0,0.0,0.0,0.0,,0.0,0.0,,0,0,0,,0,0,0.0,,,0.0,,0,-0.0,-0.0,-0.0,-0.0,,0.0,-5.625,,0,2,1,,0,1,0.0,0.0,0.0,0.0,0,,,0,,0,0,'',0,,1,0,0,189,2,,38.0499992371,,0,2.35540008545,-0.0154809998348,8.39999993332e-05,1.59299997904e-06,,0.0,0.0,,1,0,0,196,2,,37.3899993896,,0,-5.66009998322,-0.0504809990525,0.00148199999239,-1.66110003192e-05,,4.82999992371,0.0,0,0
1620888970416064233,,,0,,0,0,'',0,0.0,0,,,40.5499992371,,0,1.9593000412,-0.0273349992931,0.000541999994311,-5.35299977855e-06,,3.6400001049,2.0,,197,2,1,,0,1,0.0,,,50.0,,0,-1.26390004158,-0.0175100006163,0.00017499999376,-3.26800000039e-06,,0.0,-2.0,,198,2,1,,0,2,0.0,,,0.0,,0,0.0,0.0,0.0,0.0,,0.0,0.0,,0,0,0,,0,0,0.0,,,0.0,,0,-0.0,-0.0,-0.0,-0.0,,0.0,-5.625,,0,2,1,,0,1,0.0,0.0,0.0,0.0,0,,,0,,0,0,'',0,,1,0,0,189,2,,38.0499992371,,0,2.35540008545,-0.0154809998348,8.39999993332e-05,1.59299997904e-06,,0.0,0.0,,1,0,0,196,2,,37.3899993896,,0,-5.66009998322,-0.0504809990525,0.00148199999239,-1.66110003192e-05,,4.82999992371,0.0,0,0
1620888970466131829,,,0,,0,0,'',0,0.0,0,,,40.2900009155,,0,1.93570005894,-0.0286759994924,0.000529000011738,-5.78600020162e-06,,3.02999997139,2.0,,197,2,1,,0,1,0.0,,,50.0,,0,-1.27069997787,-0.0180389992893,0.000171000006958,-2.85999999505e-06,,0.0,-2.0,,198,2,1,,0,2,0.0,,,0.0,,0,0.0,0.0,0.0,0.0,,0.0,0.0,,0,0,0,,0,0,0.0,,,0.0,,0,-0.0,-0.0,-0.0,-0.0,,0.0,-5.625,,0,2,1,,0,1,0.0,0.0,0.0,0.0,0,,,0,,0,0,'',0,,1,0,0,189,2,,39.6800003052,,0,2.3436999321,-0.015685999766,8.29999989946e-05,-2.18300010602e-06,,0.0,0.0,,1,0,0,196,2,,38.8199996948,,0,-5.69140005112,-0.0492050014436,0.00145700003486,-1.4440999621e-05,,4.21000003815,0.0,0,0
1620888970516078475,,,0,,0,0,'',0,0.0,0,,,40.2900009155,,0,1.92680001259,-0.0292690005153,0.000523000024259,-5.78600020162e-06,,3.02999997139,2.0,,197,2,1,,0,1,0.0,,,50.0,,0,-1.27639997005,-0.0188510008156,0.000167999998666,-2.85999999505e-06,,0.0,-2.0,,198,2,1,,0,2,0.0,,,0.0,,0,0.0,0.0,0.0,0.0,,0.0,0.0,,0,0,0,,0,0,0.0,,,0.0,,0,-0.0,-0.0,-0.0,-0.0,,0.0,-5.625,,0,2,1,,0,1,0.0,0.0,0.0,0.0,0,,,0,,0,0,'',0,,1,0,0,189,2,,39.6800003052,,0,2.3436999321,-0.015685999766,8.29999989946e-05,-2.18300010602e-06,,0.0,0.0,,1,0,0,196,2,,38.8199996948,,0,-5.69140005112,-0.0492050014436,0.00145700003486,-1.4440999621e-05,,4.21000003815,0.0,0,0
1620888970566105179,,,0,,0,0,'',0,0.0,0,,,41.3100013733,,0,1.91670000553,-0.0283059999347,0.000507000018843,-5.53400013814e-06,,2.41000008583,2.0,,197,2,1,,0,1,0.0,,,50.0,,0,-1.29970002174,-0.0182600002736,0.00017200000002,-2.71099997917e-06,,0.0,-2.0,,198,2,1,,0,2,0.0,,,0.0,,0,0.0,0.0,0.0,0.0,,0.0,0.0,,0,0,0,,0,0,0.0,,,0.0,,0,-0.0,-0.0,-0.0,-0.0,,0.0,-5.625,,0,2,1,,0,1,0.0,0.0,0.0,0.0,0,,,0,,0,0,'',0,,1,0,0,189,2,,40.3699989319,,0,2.28900003433,-0.0173150002956,8.09999983176e-05,2.50999988793e-07,,0.0,0.0,,1,0,0,196,2,,38.4399986267,,0,-5.72259998322,-0.0500390008092,0.0014459999511,-1.58389993885e-05,,3.58999991417,0.0,0,0
1620888970615993577,,,0,,0,0,'',0,0.0,0,,,41.3100013733,,0,1.90369999409,-0.0286400001496,0.000499000016134,-5.53400013814e-06,,2.41000008583,2.0,,197,2,1,,0,1,0.0,,,50.0,,0,-1.30820000172,-0.018897999078,0.000167999998666,-2.71099997917e-06,,0.0,-2.0,,198,2,1,,0,2,0.0,,,0.0,,0,0.0,0.0,0.0,0.0,,0.0,0.0,,0,0,0,,0,0,0.0,,,0.0,,0,-0.0,-0.0,-0.0,-0.0,,0.0,-5.625,,0,2,1,,0,1,0.0,0.0,0.0,0.0,0,,,0,,0,0,'',0,,1,0,0,189,2,,40.3699989319,,0,2.28900003433,-0.0173150002956,8.09999983176e-05,2.50999988793e-07,,0.0,0.0,,1,0,0,196,2,,38.4399986267,,0,-5.72259998322,-0.0500390008092,0.0014459999511,-1.58389993885e-05,,3.58999991417,0.0,0,0
1620888970665983804,,,0,,0,0,'',0,0.0,0,,,43.5999984741,,0,1.90550005436,-0.0273669995368,0.000441000011051,-4.43499993708e-06,,1.82000005245,2.0,,197,2,1,,0,1,0.0,,,50.0,,0,-1.30320000648,-0.0174090005457,0.000161000003573,-3.25199994222e-06,,0.0,-2.0,,198,2,1,,0,2,0.0,,,0.0,,0,0.0,0.0,0.0,0.0,,0.0,0.0,,0,0,0,,0,0,0.0,,,0.0,,0,-0.0,-0.0,-0.0,-0.0,,0.0,-5.625,,0,2,1,,0,1,0.0,0.0,0.0,0.0,0,,,0,,0,0,'',0,,1,0,0,189,2,,39.7700004578,,0,2.29679989815,-0.0141740003601,7.30000028852e-05,-1.12099996841e-06,,0.0,0.0,,1,0,0,196,2,,37.5299987793,,0,-5.75390005112,-0.0488290004432,0.00142999994569,-1.5077000171e-05,,2.97000002861,0.0,0,0
1620888970716158885,,,0,,0,0,'',0,0.0,0,,,43.5999984741,,0,1.89709997177,-0.027710000053,0.000437000009697,-4.43499993708e-06,,1.82000005245,2.0,,197,2,1,,0,1,0.0,,,50.0,,0,-1.3085000515,-0.0179219990969,0.000157999995281,-3.25199994222e-06,,0.0,-2.0,,198,2,1,,0,2,0.0,,,0.0,,0,0.0,0.0,0.0,0.0,,0.0,0.0,,0,0,0,,0,0,0.0,,,0.0,,0,-0.0,-0.0,-0.0,-0.0,,0.0,-5.625,,0,2,1,,0,1,0.0,0.0,0.0,0.0,0,,,0,,0,0,'',0,,1,0,0,189,2,,39.7700004578,,0,2.29679989815,-0.0141740003601,7.30000028852e-05,-1.12099996841e-06,,0.0,0.0,,1,0,0,196,2,,37.5299987793,,0,-5.75390005112,-0.0488290004432,0.00142999994569,-1.5077000171e-05,,2.97000002861,0.0,0,0
1620888970766018341,,,0,,0,0,'',0,0.0,0,,,42.7400016785,,0,1.89859998226,-0.0258089993149,0.00037500000326,-4.35399988419e-06,,1.22000002861,2.0,,197,2,1,,0,1,0.0,,,50.0,,0,-1.31169998646,-0.0185759998858,0.00014899999951,-3.55499992111e-06,,0.0,-2.0,,198,2,1,,0,2,0.0,,,0.0,,0,0.0,0.0,0.0,0.0,,0.0,0.0,,0,0,0,,0,0,0.0,,,0.0,,0,-0.0,-0.0,-0.0,-0.0,,0.0,-5.625,,0,2,1,,0,1,0.0,0.0,0.0,0.0,0,,,0,,0,0,'',0,,1,0,0,189,2,,39.7700004578,,0,2.29679989815,-0.0141740003601,7.30000028852e-05,-1.12099996841e-06,,0.0,0.0,,1,0,0,196,2,,37.5299987793,,0,-5.75390005112,-0.0488290004432,0.00142999994569,-1.5077000171e-05,,2.97000002861,0.0,0,0
1620888970816080323,,,0,,0,0,'',0,0.0,0,,,42.7400016785,,0,1.89470005035,-0.0260000005364,0.000372999988031,-4.35399988419e-06,,1.22000002861,2.0,,197,2,1,,0,1,0.0,,,50.0,,0,-1.31449997425,-0.0188359990716,0.000146999998833,-3.55499992111e-06,,0.0,-2.0,,198,2,1,,0,2,0.0,,,0.0,,0,0.0,0.0,0.0,0.0,,0.0,0.0,,0,0,0,,0,0,0.0,,,0.0,,0,-0.0,-0.0,-0.0,-0.0,,0.0,-5.625,,0,2,1,,0,1,0.0,0.0,0.0,0.0,0,,,0,,0,0,'',0,,4,0,0,189,2,,39.1699981689,,0,2.28900003433,-0.0154299996793,6.90000015311e-05,-2.52599988926e-06,,0.0,0.0,,4,0,0,196,2,,36.9199981689,,0,-5.7811999321,-0.0472869984806,0.00134299998172,-1.59800001711e-05,,2.36999988556,0.0,0,0
1620888970865957627,,,0,,0,0,'',0,0.0,0,,,42.7400016785,,0,1.88670003414,-0.0263839997351,0.000369999994291,-4.35399988419e-06,,1.22000002861,2.0,,197,2,1,,0,1,0.0,,,50.0,,0,-1.32029998302,-0.0193569995463,0.000144000005093,-3.55499992111e-06,,0.0,-2.0,,198,2,1,,0,2,0.0,,,0.0,,0,0.0,0.0,0.0,0.0,,0.0,0.0,,0,0,0,,0,0,0.0,,,0.0,,0,-0.0,-0.0,-0.0,-0.0,,0.0,-5.625,,0,2,1,,0,1,0.0,0.0,0.0,0.0,0,,,0,,0,0,'',0,,4,0,0,189,2,,39.1699981689,,0,2.28900003433,-0.0154299996793,6.90000015311e-05,-2.52599988926e-06,,0.0,0.0,,4,0,0,196,2,,36.9199981689,,0,-5.7811999321,-0.0472869984806,0.00134299998172,-1.59800001711e-05,,2.36999988556,0.0,0,0
1620888970916014477,,,0,,0,0,'',0,0.0,0,,,45.8600006104,,0,1.87950003147,-0.0255280006677,0.000342999992426,-3.42099997397e-06,,0.620000004768,2.0,,197,2,1,,0,1,0.0,,,50.0,,0,-1.33550000191,-0.0208310000598,0.000142999997479,-2.76600007965e-06,,0.0,-2.0,,198,2,1,,0,2,0.0,,,0.0,,0,0.0,0.0,0.0,0.0,,0.0,0.0,,0,0,0,,0,0,0.0,,,0.0,,0,-0.0,-0.0,-0.0,-0.0,,0.0,-5.625,,0,2,1,,0,1,0.0,0.0,0.0,0.0,0,,,0,,0,0,'',0,,1,0,0,189,2,,38.5699996948,,0,2.29679989815,-0.0151500003412,6.19999991613e-05,-2.9180000638e-06,,0.0,0.0,,1,0,0,196,2,,36.2999992371,,0,-5.80070018768,-0.0445370003581,0.00124999997206,-1.4891000319e-05,,1.75,0.0,0,0
1620888970965968681,,,0,,0,0,'',0,0.0,0,,,45.8600006104,,0,1.87170004845,-0.0258060004562,0.000339999998687,-3.42099997397e-06,,0.620000004768,2.0,,197,2,1,,0,1,0.0,,,50.0,,0,-1.34179997444,-0.0212270002812,0.000140000003739,-2.76600007965e-06,,0.0,-2.0,,198,2,1,,0,2,0.0,,,0.0,,0,0.0,0.0,0.0,0.0,,0.0,0.0,,0,0,0,,0,0,0.0,,,0.0,,0,-0.0,-0.0,-0.0,-0.0,,0.0,-5.625,,0,2,1,,0,1,0.0,0.0,0.0,0.0,0,,,0,,0,0,'',0,,1,0,0,189,2,,38.5699996948,,0,2.29679989815,-0.0151500003412,6.19999991613e-05,-2.9180000638e-06,,0.0,0.0,,1,0,0,196,2,,36.2999992371,,0,-5.80070018768,-0.0445370003581,0.00124999997206,-1.4891000319e-05,,1.75,0.0,0,0
1620888971016011650,,,0,,0,0,'',0,0.0,0,,,45.25,,0,1.8588000536,-0.0268099997193,0.000327999994624,-3.66299991583e-06,,0.019999999553,2.0,,197,2,1,,0,1,0.0,,,49.3899993896,,0,-1.34290003777,-0.019974000752,0.000136999995448,-2.25899998441e-06,,0.0,-2.0,,198,2,1,,0,2,0.0,,,0.0,,0,0.0,0.0,0.0,0.0,,0.0,0.0,,0,0,0,,0,0,0.0,,,0.0,,0,-0.0,-0.0,-0.0,-0.0,,0.0,-5.625,,0,2,1,,0,1,0.0,0.0,0.0,0.0,0,,,0,,0,0,'',0,,4,0,0,189,2,,37.9599990845,,0,2.28509998322,-0.0173330008984,5.80000014452e-05,-3.15500005854e-06,,0.0,0.0,,1,0,0,196,2,,36.4099998474,,0,-5.82030010223,-0.0425329990685,0.00119400001131,-1.69899994944e-05,,1.13999998569,0.0,0,0
1620888971066214027,,,0,,0,0,'',0,0.0,0,,,45.25,,0,1.85080003738,-0.0269169993699,0.00032399999327,-3.66299991583e-06,,0.019999999553,2.0,,197,2,1,,0,1,0.0,,,49.3899993896,,0,-1.34879994392,-0.0201939996332,0.000134999994771,-2.25899998441e-06,,0.0,-2.0,,198,2,1,,0,2,0.0,,,0.0,,0,0.0,0.0,0.0,0.0,,0.0,0.0,,0,0,0,,0,0,0.0,,,0.0,,0,-0.0,-0.0,-0.0,-0.0,,0.0,-5.625,,0,2,1,,0,1,0.0,0.0,0.0,0.0,0,,,0,,0,0,'',0,,4,0,0,189,2,,37.9599990845,,0,2.28509998322,-0.0173330008984,5.80000014452e-05,-3.15500005854e-06,,0.0,0.0,,1,0,0,196,2,,36.4099998474,,0,-5.82030010223,-0.0425329990685,0.00119400001131,-1.69899994944e-05,,1.13999998569,0.0,0,0
1620888971115956577,,,0,,0,0,'',0,0.0,0,,,44.6500015259,,0,1.85029995441,-0.0281160008162,0.0003039999865,-4.09099993703e-06,,0.0,2.0,,197,2,1,,0,1,0.0,,,48.7900009155,,0,-1.34679996967,-0.018383000046,0.000134000001708,-1.83400004516e-06,,0.0,-2.0,,198,2,1,,0,2,0.0,,,0.0,,0,0.0,0.0,0.0,0.0,,0.0,0.0,,0,0,0,,0,0,0.0,,,0.0,,0,-0.0,-0.0,-0.0,-0.0,,0.0,-5.625,,0,2,1,,0,1,0.0,0.0,0.0,0.0,0,,,0,,0,0,'',0,,4,0,0,189,2,,38.6399993896,,0,2.27340006828,-0.0197400003672,5.4000000091e-05,-2.85999999505e-06,,0.0,0.0,,1,0,0,196,2,,39.7299995422,,0,-5.8436999321,-0.0409619994462,0.00113300001249,-1.50930000018e-05,,0.52999997139,0.0,0,0
1620888971166131325,,,0,,0,0,'',0,0.0,0,,,44.6500015259,,0,1.84169995785,-0.0284219998866,0.000300000014249,-4.09099993703e-06,,0.0,2.0,,197,2,1,,0,1,0.0,,,48.7900009155,,0,-1.35249996185,-0.0187919996679,0.000132000001031,-1.83400004516e-06,,0.0,-2.0,,198,2,1,,0,2,0.0,,,0.0,,0,0.0,0.0,0.0,0.0,,0.0,0.0,,0,0,0,,0,0,0.0,,,0.0,,0,-0.0,-0.0,-0.0,-0.0,,0.0,-5.625,,0,2,1,,0,1,0.0,0.0,0.0,0.0,0,,,0,,0,0,'',0,,4,0,0,189,2,,38.6399993896,,0,2.27340006828,-0.0197400003672,5.4000000091e-05,-2.85999999505e-06,,0.0,0.0,,1,0,0,196,2,,39.7299995422,,0,-5.8436999321,-0.0409619994462,0.00113300001249,-1.50930000018e-05,,0.52999997139,0.0,0,0
1620888971215966348,,,0,,0,0,'',0,0.0,0,,,44.0499992371,,0,1.84230005741,-0.0285149998963,0.000295000005281,-2.58599993685e-06,,0.0,2.0,,197,2,1,,0,1,0.0,,,50.0,,0,-1.35479998589,-0.018769999966,0.000127000006614,-2.68999997388e-06,,0.0,-2.0,,198,2,1,,0,2,0.0,,,0.0,,0,0.0,0.0,0.0,0.0,,0.0,0.0,,0,0,0,,0,0,0.0,,,0.0,,0,-0.0,-0.0,-0.0,-0.0,,0.0,-5.625,,0,2,1,,0,1,0.0,0.0,0.0,0.0,0,,,0,,0,0,'',0,,4,0,0,189,2,,38.0499992371,,0,2.26950001717,-0.019430000335,4.89999983984e-05,-8.65999993493e-07,,0.0,0.0,,1,0,0,196,2,,39.1199989319,,0,-5.85930013657,-0.0378330014646,0.00104799994733,-1.76300000021e-05,,0.0,0.0,0,0
1620888971265940942,,,0,,0,0,'',0,0.0,0,,,44.0499992371,,0,1.83369994164,-0.0285810008645,0.000292000011541,-2.58599993685e-06,,0.0,2.0,,197,2,1,,0,1,0.0,,,50.0,,0,-1.36049997807,-0.0189379993826,0.000125000005937,-2.68999997388e-06,,0.0,-2.0,,198,2,1,,0,2,0.0,,,0.0,,0,0.0,0.0,0.0,0.0,,0.0,0.0,,0,0,0,,0,0,0.0,,,0.0,,0,-0.0,-0.0,-0.0,-0.0,,0.0,-5.625,,0,2,1,,0,1,0.0,0.0,0.0,0.0,0,,,0,,0,0,'',0,,4,0,0,189,2,,38.0499992371,,0,2.26950001717,-0.019430000335,4.89999983984e-05,-8.65999993493e-07,,0.0,0.0,,1,0,0,196,2,,39.1199989319,,0,-5.85930013657,-0.0378330014646,0.00104799994733,-1.76300000021e-05,,0.0,0.0,0,0
1620888971316275129,,,0,,0,0,'',0,0.0,0,,,44.0499992371,,0,1.82949995995,-0.0286730006337,0.000291000003926,-2.58599993685e-06,,0.0,2.0,,197,2,1,,0,1,0.0,,,50.0,,0,-1.36329996586,-0.0190769992769,0.000123999998323,-2.68999997388e-06,,0.0,-2.0,,198,2,1,,0,2,0.0,,,0.0,,0,0.0,0.0,0.0,0.0,,0.0,0.0,,0,0,0,,0,0,0.0,,,0.0,,0,-0.0,-0.0,-0.0,-0.0,,0.0,-5.625,,0,2,1,,0,1,0.0,0.0,0.0,0.0,0,,,0,,0,0,'',0,,4,0,0,189,2,,38.0499992371,,0,2.26950001717,-0.019430000335,4.89999983984e-05,-8.65999993493e-07,,0.0,0.0,,1,0,0,196,2,,39.1199989319,,0,-5.85930013657,-0.0378330014646,0.00104799994733,-1.76300000021e-05,,0.0,0.0,0,0
1620888971366277399,,,0,,0,0,'',0,0.0,0,,,46.7700004578,,0,1.83469998837,-0.0276640001684,0.000265999988187,-2.2799999897e-06,,0.0,2.0,,197,2,1,,0,1,0.0,,,49.4000015259,,0,-1.36969995499,-0.0192150007933,0.00012300000526,-2.47999992098e-06,,0.0,-2.0,,198,2,1,,0,2,0.0,,,0.0,,0,0.0,0.0,0.0,0.0,,0.0,0.0,,0,0,0,,0,0,0.0,,,0.0,,0,-0.0,-0.0,-0.0,-0.0,,0.0,-5.625,,0,2,1,,0,1,0.0,0.0,0.0,0.0,0,,,0,,0,0,'',0,,4,0,0,189,2,,37.4500007629,,0,2.26169991493,-0.0189689993858,4.60000010207e-05,-3.29999991777e-08,,0.0,0.0,,1,0,0,196,2,,38.5200004578,,0,-5.86709976196,-0.0337500013411,0.000949000008404,-1.75210007001e-05,,0.0,0.0,0,0
1620888971416072891,,,0,,0,0,'',0,0.0,0,,,46.7700004578,,0,1.82640004158,-0.0278650000691,0.000264000002062,-2.2799999897e-06,,0.0,2.0,,197,2,1,,0,1,0.0,,,49.4000015259,,0,-1.37549996376,-0.019502999261,0.000119999996969,-2.47999992098e-06,,0.0,-2.0,,198,2,1,,0,2,0.0,,,0.0,,0,0.0,0.0,0.0,0.0,,0.0,0.0,,0,0,0,,0,0,0.0,,,0.0,,0,-0.0,-0.0,-0.0,-0.0,,0.0,-5.625,,0,2,1,,0,1,0.0,0.0,0.0,0.0,0,,,0,,0,0,'',0,,4,0,0,189,2,,37.4500007629,,0,2.26169991493,-0.0189689993858,4.60000010207e-05,-3.29999991777e-08,,0.0,0.0,,1,0,0,196,2,,38.5200004578,,0,-5.86709976196,-0.0337500013411,0.000949000008404,-1.75210007001e-05,,0.0,0.0,0,0
1620888971466003854,,,0,,0,0,'',0,0.0,0,,,47.9199981689,,0,1.8234000206,-0.0269479993731,0.000254999991739,-1.50400001075e-06,,0.0,2.0,,197,2,1,,0,1,0.0,,,48.7999992371,,0,-1.38240003586,-0.0203850008547,0.00011600000289,-2.49100003202e-06,,0.0,-2.0,,198,2,1,,0,2,0.0,,,0.0,,0,0.0,0.0,0.0,0.0,,0.0,0.0,,0,0,0,,0,0,0.0,,,0.0,,0,-0.0,-0.0,-0.0,-0.0,,0.0,-5.625,,0,2,1,,0,1,0.0,0.0,0.0,0.0,0,,,0,,0,0,'',0,,1,0,0,189,2,,36.8499984741,,0,2.25780010223,-0.0178360007703,4.09999993281e-05,-1.69800000549e-06,,0.0,0.0,,1,0,0,196,2,,37.9199981689,,0,-5.88280010223,-0.0327289998531,0.000864000001457,-1.85829994734e-05,,0.0,0.0,0,0
1620888971516041201,,,0,,0,0,'',0,0.0,0,,,47.9199981689,,0,1.8151999712,-0.0270349998027,0.000253000005614,-1.50400001075e-06,,0.0,2.0,,197,2,1,,0,1,0.0,,,48.7999992371,,0,-1.3885999918,-0.02055599913,0.000113000001875,-2.49100003202e-06,,0.0,-2.0,,198,2,1,,0,2,0.0,,,0.0,,0,0.0,0.0,0.0,0.0,,0.0,0.0,,0,0,0,,0,0,0.0,,,0.0,,0,-0.0,-0.0,-0.0,-0.0,,0.0,-5.625,,0,2,1,,0,1,0.0,0.0,0.0,0.0,0,,,0,,0,0,'',0,,1,0,0,189,2,,36.8499984741,,0,2.25780010223,-0.0178360007703,4.09999993281e-05,-1.69800000549e-06,,0.0,0.0,,1,0,0,196,2,,37.9199981689,,0,-5.88280010223,-0.0327289998531,0.000864000001457,-1.85829994734e-05,,0.0,0.0,0,0
1620888971566011264,,,0,,0,0,'',0,0.0,0,,,47.3199996948,,0,1.80750000477,-0.0273599997163,0.000260000000708,-1.90200000816e-06,,0.0,2.0,,197,2,1,,0,1,0.0,,,48.1899986267,,0,-1.39470005035,-0.0212539993227,0.000111000001198,-2.27900000027e-06,,0.0,-2.0,,198,2,1,,0,2,0.0,,,0.0,,0,0.0,0.0,0.0,0.0,,0.0,0.0,,0,0,0,,0,0,0.0,,,0.0,,0,-0.0,-0.0,-0.0,-0.0,,0.0,-5.625,,0,2,1,,0,1,0.0,0.0,0.0,0.0,0,,,0,,0,0,'',0,,4,0,0,189,2,,36.5099983215,,0,2.27729988098,-0.0178020000458,3.8999998651e-05,-2.38899997385e-06,,0.0,0.0,,1,0,0,196,2,,37.2999992371,,0,-5.90229988098,-0.0334599986672,0.000745999976061,-1.5670000721e-05,,0.0,0.0,0,0
1620888971616017009,,,0,,0,0,'',0,0.0,0,,,47.3199996948,,0,1.79920005798,-0.0275049991906,0.000257999985479,-1.90200000816e-06,,0.0,2.0,,197,2,1,,0,1,0.0,,,48.1899986267,,0,-1.40120005608,-0.0214879997075,0.000109000000521,-2.27900000027e-06,,0.0,-2.0,,198,2,1,,0,2,0.0,,,0.0,,0,0.0,0.0,0.0,0.0,,0.0,0.0,,0,0,0,,0,0,0.0,,,0.0,,0,-0.0,-0.0,-0.0,-0.0,,0.0,-5.625,,0,2,1,,0,1,0.0,0.0,0.0,0.0,0,,,0,,0,0,'',0,,4,0,0,189,2,,36.5099983215,,0,2.27729988098,-0.0178020000458,3.8999998651e-05,-2.38899997385e-06,,0.0,0.0,,1,0,0,196,2,,37.2999992371,,0,-5.90229988098,-0.0334599986672,0.000745999976061,-1.5670000721e-05,,0.0,0.0,0,0
1620888971666016576,,,0,,0,0,'',0,0.0,0,,,47.6699981689,,0,1.78789997101,-0.0277050007135,0.000251999998,-1.94099993678e-06,,0.0,2.0,,197,2,1,,0,1,0.0,,,48.0,,0,-1.39900004864,-0.0204819999635,0.000110000000859,-1.55299994731e-06,,0.0,-2.0,,198,2,1,,0,2,0.0,,,0.0,,0,0.0,0.0,0.0,0.0,,0.0,0.0,,0,0,0,,0,0,0.0,,,0.0,,0,-0.0,-0.0,-0.0,-0.0,,0.0,-5.625,,0,2,1,,0,1,0.0,0.0,0.0,0.0,0,,,0,,0,0,'',0,,1,0,0,189,2,,38.6399993896,,0,2.26559996605,-0.0199299994856,3.79999983124e-05,-1.80899996849e-06,,0.0,0.0,,1,0,0,196,2,,40.0499992371,,0,-5.9061999321,-0.0301229991019,0.000637000019196,-1.29070003823e-05,,0.0,0.0,0,0
1620888971715974087,,,0,,0,0,'',0,0.0,0,,,47.6699981689,,0,1.77950000763,-0.0278520006686,0.000250000011874,-1.94099993678e-06,,0.0,2.0,,197,2,1,,0,1,0.0,,,48.0,,0,-1.40520000458,-0.0207139998674,0.000108000000182,-1.55299994731e-06,,0.0,-2.0,,198,2,1,,0,2,0.0,,,0.0,,0,0.0,0.0,0.0,0.0,,0.0,0.0,,0,0,0,,0,0,0.0,,,0.0,,0,-0.0,-0.0,-0.0,-0.0,,0.0,-5.625,,0,2,1,,0,1,0.0,0.0,0.0,0.0,0,,,0,,0,0,'',0,,1,0,0,189,2,,38.6399993896,,0,2.26559996605,-0.0199299994856,3.79999983124e-05,-1.80899996849e-06,,0.0,0.0,,1,0,0,196,2,,40.0499992371,,0,-5.9061999321,-0.0301229991019,0.000637000019196,-1.29070003823e-05,,0.0,0.0,0,0
1620888971765950864,,,0,,0,0,'',0,0.0,0,,,47.0600013733,,0,1.7717000246,-0.02854700014,0.000246999989031,-1.92299989976e-06,,0.0,2.0,,197,2,1,,0,1,0.0,,,48.6800003052,,0,-1.40639996529,-0.0197730008513,0.000103999998828,-2.08799997381e-06,,0.0,-2.0,,198,2,1,,0,2,0.0,,,0.0,,0,0.0,0.0,0.0,0.0,,0.0,0.0,,0,0,0,,0,0,0.0,,,0.0,,0,-0.0,-0.0,-0.0,-0.0,,0.0,-5.625,,0,2,1,,0,1,0.0,0.0,0.0,0.0,0,,,0,,0,0,'',0,,4,0,0,189,2,,38.3400001526,,0,2.25780010223,-0.0201709996909,3.40000005963e-05,-1.74900003458e-06,,0.0,0.0,,1,0,0,196,2,,40.2799987793,,0,-5.91790008545,-0.0269150007516,0.00060199998552,-1.23999998323e-05,,0.0,0.0,0,0
1620888971816263987,,,0,,0,0,'',0,0.0,0,,,47.0600013733,,0,1.76740002632,-0.0285320002586,0.00024600001052,-1.92299989976e-06,,0.0,2.0,,197,2,1,,0,1,0.0,,,48.6800003052,,0,-1.40939998627,-0.019803000614,0.000102999998489,-2.08799997381e-06,,0.0,-2.0,,198,2,1,,0,2,0.0,,,0.0,,0,0.0,0.0,0.0,0.0,,0.0,0.0,,0,0,0,,0,0,0.0,,,0.0,,0,-0.0,-0.0,-0.0,-0.0,,0.0,-5.625,,0,2,1,,0,1,0.0,0.0,0.0,0.0,0,,,0,,0,0,'',0,,4,0,0,189,2,,38.3400001526,,0,2.25780010223,-0.0201709996909,3.40000005963e-05,-1.74900003458e-06,,0.0,0.0,,1,0,0,196,2,,40.2799987793,,0,-5.91790008545,-0.0269150007516,0.00060199998552,-1.23999998323e-05,,0.0,0.0,0,0
1620888971865983953,,,0,,0,0,'',0,0.0,0,,,47.0600013733,,0,1.75880002975,-0.0285049993545,0.000243999995291,-1.92299989976e-06,,0.0,2.0,,197,2,1,,0,1,0.0,,,48.6800003052,,0,-1.41540002823,-0.0198609996587,0.000101999998151,-2.08799997381e-06,,0.0,-2.0,,198,2,1,,0,2,0.0,,,0.0,,0,0.0,0.0,0.0,0.0,,0.0,0.0,,0,0,0,,0,0,0.0,,,0.0,,0,-0.0,-0.0,-0.0,-0.0,,0.0,-5.625,,0,2,1,,0,1,0.0,0.0,0.0,0.0,0,,,0,,0,0,'',0,,4,0,0,189,2,,38.3400001526,,0,2.25780010223,-0.0201709996909,3.40000005963e-05,-1.74900003458e-06,,0.0,0.0,,1,0,0,196,2,,40.2799987793,,0,-5.91790008545,-0.0269150007516,0.00060199998552,-1.23999998323e-05,,0.0,0.0,0,0
1620888971916058312,,,0,,0,0,'',0,0.0,0,,,47.6300010681,,0,1.76030004025,-0.0271809995174,0.000236000007135,-1.58299997111e-06,,0.0,2.0,,197,2,1,,0,1,0.0,,,48.1199989319,,0,-1.42480003834,-0.0192450005561,0.000101999998151,-1.5399999711e-06,,0.0,-2.0,,198,2,1,,0,2,0.0,,,0.0,,0,0.0,0.0,0.0,0.0,,0.0,0.0,,0,0,0,,0,0,0.0,,,0.0,,0,-0.0,-0.0,-0.0,-0.0,,0.0,-5.625,,0,2,1,,0,1,0.0,0.0,0.0,0.0,0,,,0,,0,0,'',0,,1,0,0,189,2,,39.6199989319,,0,2.2460000515,-0.0202580001205,3.09999995807e-05,-1.19999995718e-07,,0.0,0.0,,1,0,0,196,2,,39.6699981689,,0,-5.92180013657,-0.024904999882,0.000529000011738,-1.28580004457e-05,,0.0,0.0,0,0
1620888971966067688,,,0,,0,0,'',0,0.0,0,,,47.6300010681,,0,1.75209999084,-0.027038000524,0.000234000006458,-1.58299997111e-06,,0.0,2.0,,197,2,1,,0,1,0.0,,,48.1199989319,,0,-1.4306999445,-0.0191830005497,9.99999974738e-05,-1.5399999711e-06,,0.0,-2.0,,198,2,1,,0,2,0.0,,,0.0,,0,0.0,0.0,0.0,0.0,,0.0,0.0,,0,0,0,,0,0,0.0,,,0.0,,0,-0.0,-0.0,-0.0,-0.0,,0.0,-5.625,,0,2,1,,0,1,0.0,0.0,0.0,0.0,0,,,0,,0,0,'',0,,1,0,0,189,2,,39.6199989319,,0,2.2460000515,-0.0202580001205,3.09999995807e-05,-1.19999995718e-07,,0.0,0.0,,1,0,0,196,2,,39.6699981689,,0,-5.92180013657,-0.024904999882,0.000529000011738,-1.28580004457e-05,,0.0,0.0,0,0
1620888972015956855,,,0,,0,0,'',0,0.0,0,,,49.8600006104,,0,1.74930000305,-0.0262269992381,0.000237000000197,-1.31000001602e-06,,0.0,2.0,,197,2,1,,0,1,0.0,,,50.0,,0,-1.44070005417,-0.0194690003991,9.60000033956e-05,-2.20199990508e-06,,0.0,-2.0,,198,2,1,,0,2,0.0,,,0.0,,0,0.0,0.0,0.0,0.0,,0.0,0.0,,0,0,0,,0,0,0.0,,,0.0,,0,-0.0,-0.0,-0.0,-0.0,,0.0,-5.625,,0,2,1,,0,1,0.0,0.0,0.0,0.0,0,,,0,,0,0,'',0,,4,0,0,189,2,,39.0099983215,,0,2.23040008545,-0.0205019991845,3.19999999192e-05,6.98000008015e-07,,0.0,0.0,,1,0,0,196,2,,39.0699996948,,0,-5.92180013657,-0.0223430003971,0.00042699999176,-1.42620001498e-05,,0.0,0.0,0,0
1620888972065976429,,,0,,0,0,'',0,0.0,0,,,49.8600006104,,0,1.74129998684,-0.0260830000043,0.000236000007135,-1.31000001602e-06,,0.0,2.0,,197,2,1,,0,1,0.0,,,50.0,,0,-1.44659996033,-0.0194109994918,9.40000027185e-05,-2.20199990508e-06,,0.0,-2.0,,198,2,1,,0,2,0.0,,,0.0,,0,0.0,0.0,0.0,0.0,,0.0,0.0,,0,0,0,,0,0,0.0,,,0.0,,0,-0.0,-0.0,-0.0,-0.0,,0.0,-5.625,,0,2,1,,0,1,0.0,0.0,0.0,0.0,0,,,0,,0,0,'',0,,4,0,0,189,2,,39.0099983215,,0,2.23040008545,-0.0205019991845,3.19999999192e-05,6.98000008015e-07,,0.0,0.0,,1,0,0,196,2,,39.0699996948,,0,-5.92180013657,-0.0223430003971,0.00042699999176,-1.42620001498e-05,,0.0,0.0,0,0
1620888972116077243,,,0,,0,0,'',0,0.0,0,,,50.0,,0,1.73409998417,-0.0257440004498,0.000243000002229,-1.36599999223e-06,,0.0,2.0,,197,2,1,,0,1,0.0,,,50.0,,0,-1.44910001755,-0.0188929997385,9.300000238e-05,-2.04100001611e-06,,0.0,-2.0,,198,2,1,,0,2,0.0,,,0.0,,0,0.0,0.0,0.0,0.0,,0.0,0.0,,0,0,0,,0,0,0.0,,,0.0,,0,-0.0,-0.0,-0.0,-0.0,,0.0,-5.625,,0,2,1,,0,1,0.0,0.0,0.0,0.0,0,,,0,,0,0,'',0,,4,0,0,189,2,,38.6199989319,,0,2.2186999321,-0.0206359997392,3.30000002577e-05,-2.93999988799e-07,,0.0,0.0,,1,0,0,196,2,,38.4599990845,,0,-5.92570018768,-0.0198960006237,0.000350999995135,-1.04709997686e-05,,0.0,0.0,0,0
1620888972166093430,,,0,,0,0,'',0,0.0,0,,,50.0,,0,1.72630000114,-0.0255970004946,0.000241999994614,-1.36599999223e-06,,0.0,2.0,,197,2,1,,0,1,0.0,,,50.0,,0,-1.45480000973,-0.0188359990716,9.10000017029e-05,-2.04100001611e-06,,0.0,-2.0,,198,2,1,,0,2,0.0,,,0.0,,0,0.0,0.0,0.0,0.0,,0.0,0.0,,0,0,0,,0,0,0.0,,,0.0,,0,-0.0,-0.0,-0.0,-0.0,,0.0,-5.625,,0,2,1,,0,1,0.0,0.0,0.0,0.0,0,,,0,,0,0,'',0,,4,0,0,189,2,,38.6199989319,,0,2.2186999321,-0.0206359997392,3.30000002577e-05,-2.93999988799e-07,,0.0,0.0,,1,0,0,196,2,,38.4599990845,,0,-5.92570018768,-0.0198960006237,0.000350999995135,-1.04709997686e-05,,0.0,0.0,0,0
1620888972215950568,,,0,,0,0,'',0,0.0,0,,,50.0,,0,1.72630000114,-0.0256489999592,0.000230999998166,-1.57299996317e-06,,0.0,2.0,,197,2,1,,0,1,0.0,,,50.0,,0,-1.46809995174,-0.0181169994175,9.00000013644e-05,-1.08500000806e-06,,0.0,-2.0,,198,2,1,,0,2,0.0,,,0.0,,0,0.0,0.0,0.0,0.0,,0.0,0.0,,0,0,0,,0,0,0.0,,,0.0,,0,-0.0,-0.0,-0.0,-0.0,,0.0,-5.625,,0,2,1,,0,1,0.0,0.0,0.0,0.0,0,,,0,,0,0,'',0,,4,0,0,189,2,,38.5999984741,,0,2.21090006828,-0.0205390006304,3.19999999192e-05,-3.52000000703e-07,,0.0,0.0,,1,0,0,196,2,,40.6599998474,,0,-5.92959976196,-0.0173589996994,0.000306000001729,-8.06400021247e-06,,0.0,0.0,0,0
1620888972266082862,,,0,,0,0,'',0,0.0,0,,,50.0,,0,1.71860003471,-0.025449000299,0.000230000005104,-1.57299996317e-06,,0.0,2.0,,197,2,1,,0,1,0.0,,,50.0,,0,-1.47360002995,-0.0180029999465,8.90000010259e-05,-1.08500000806e-06,,0.0,-2.0,,198,2,1,,0,2,0.0,,,0.0,,0,0.0,0.0,0.0,0.0,,0.0,0.0,,0,0,0,,0,0,0.0,,,0.0,,0,-0.0,-0.0,-0.0,-0.0,,0.0,-5.625,,0,2,1,,0,1,0.0,0.0,0.0,0.0,0,,,0,,0,0,'',0,,4,0,0,189,2,,38.5999984741,,0,2.21090006828,-0.0205390006304,3.19999999192e-05,-3.52000000703e-07,,0.0,0.0,,1,0,0,196,2,,40.6599998474,,0,-5.92959976196,-0.0173589996994,0.000306000001729,-8.06400021247e-06,,0.0,0.0,0,0
1620888972316237751,,,0,,0,0,'',0,0.0,0,,,50.0,,0,1.7146999836,-0.0253170002252,0.000228999997489,-1.57299996317e-06,,0.0,2.0,,197,2,1,,0,1,0.0,,,50.0,,0,-1.47640001774,-0.0179140008986,8.90000010259e-05,-1.08500000806e-06,,0.0,-2.0,,198,2,1,,0,2,0.0,,,0.0,,0,0.0,0.0,0.0,0.0,,0.0,0.0,,0,0,0,,0,0,0.0,,,0.0,,0,-0.0,-0.0,-0.0,-0.0,,0.0,-5.625,,0,2,1,,0,1,0.0,0.0,0.0,0.0,0,,,0,,0,0,'',0,,4,0,0,189,2,,38.5999984741,,0,2.21090006828,-0.0205390006304,3.19999999192e-05,-3.52000000703e-07,,0.0,0.0,,1,0,0,196,2,,40.6599998474,,0,-5.92959976196,-0.0173589996994,0.000306000001729,-8.06400021247e-06,,0.0,0.0,0,0
1620888972366207011,,,0,,0,0,'',0,0.0,0,,,50.0,,0,1.70799994469,-0.0239659994841,0.000230999998166,-1.181000016e-06,,0.0,2.0,,197,2,1,,0,1,0.0,,,50.0,,0,-1.48959994316,-0.0169120002538,8.60000000102e-05,-1.31199999487e-06,,0.0,-2.0,,198,2,1,,0,2,0.0,,,0.0,,0,0.0,0.0,0.0,0.0,,0.0,0.0,,0,0,0,,0,0,0.0,,,0.0,,0,-0.0,-0.0,-0.0,-0.0,,0.0,-5.625,,0,2,1,,0,1,0.0,0.0,0.0,0.0,0,,,0,,0,0,'',0,,4,0,0,189,2,,39.0999984741,,0,2.20309996605,-0.0201069992036,2.99999992421e-05,-5.70000011635e-08,,0.0,0.0,,1,0,0,196,2,,40.0499992371,,0,-5.93349981308,-0.0168239995837,0.000250000011874,-8.27199983178e-06,,0.0,0.0,0,0
1620888972415974199,,,0,,0,0,'',0,0.0,0,,,50.0,,0,1.70060002804,-0.0235789995641,0.000230000005104,-1.181000016e-06,,0.0,2.0,,197,2,1,,0,1,0.0,,,50.0,,0,-1.49479997158,-0.0166129991412,8.49999996717e-05,-1.31199999487e-06,,0.0,-2.0,,198,2,1,,0,2,0.0,,,0.0,,0,0.0,0.0,0.0,0.0,,0.0,0.0,,0,0,0,,0,0,0.0,,,0.0,,0,-0.0,-0.0,-0.0,-0.0,,0.0,-5.625,,0,2,1,,0,1,0.0,0.0,0.0,0.0,0,,,0,,0,0,'',0,,4,0,0,189,2,,39.0999984741,,0,2.20309996605,-0.0201069992036,2.99999992421e-05,-5.70000011635e-08,,0.0,0.0,,1,0,0,196,2,,40.0499992371,,0,-5.93349981308,-0.0168239995837,0.000250000011874,-8.27199983178e-06,,0.0,0.0,0,0
1620888972465919826,,,0,,0,0,'',0,0.0,0,,,50.0,,0,1.70249998569,-0.020820999518,0.000222999995458,-1.44600005569e-06,,0.0,2.0,,197,2,1,,0,1,0.0,,,50.0,,0,-1.50859999657,-0.016108000651,8.29999989946e-05,-9.08000004074e-07,,0.0,-2.0,,198,2,1,,0,2,0.0,,,0.0,,0,0.0,0.0,0.0,0.0,,0.0,0.0,,0,0,0,,0,0,0.0,,,0.0,,0,-0.0,-0.0,-0.0,-0.0,,0.0,-5.625,,0,2,1,,0,1,0.0,0.0,0.0,0.0,0,,,0,,0,0,'',0,,4,0,0,189,2,,38.4799995422,,0,2.19530010223,-0.0178500004113,2.99999992421e-05,2.9180000638e-06,,0.0,0.0,,1,0,0,196,2,,39.4399986267,,0,-5.94140005112,-0.0169799998403,0.000205999996979,-8.66800019139e-06,,0.0,0.0,0,0
1620888972515898307,,,0,,0,0,'',0,0.0,0,,,50.0,,0,1.69609999657,-0.0202559996396,0.000222000002395,-1.44600005569e-06,,0.0,2.0,,197,2,1,,0,1,0.0,,,50.0,,0,-1.5134999752,-0.0156280007213,8.19999986561e-05,-9.08000004074e-07,,0.0,-2.0,,198,2,1,,0,2,0.0,,,0.0,,0,0.0,0.0,0.0,0.0,,0.0,0.0,,0,0,0,,0,0,0.0,,,0.0,,0,-0.0,-0.0,-0.0,-0.0,,0.0,-5.625,,0,2,1,,0,1,0.0,0.0,0.0,0.0,0,,,0,,0,0,'',0,,4,0,0,189,2,,38.4799995422,,0,2.19530010223,-0.0178500004113,2.99999992421e-05,2.9180000638e-06,,0.0,0.0,,1,0,0,196,2,,39.4399986267,,0,-5.94140005112,-0.0169799998403,0.000205999996979,-8.66800019139e-06,,0.0,0.0,0,0
1620888972566009116,,,0,,0,0,'',0,0.0,0,,,50.0,,0,1.70459997654,-0.017675999552,0.00021499999275,-1.6169999526e-06,,0.0,2.0,,197,2,1,,0,1,0.0,,,49.5600013733,,0,-1.52250003815,-0.0134509997442,7.69999969634e-05,-1.37899996844e-06,,0.0,-2.0,,198,2,1,,0,2,0.0,,,0.0,,0,0.0,0.0,0.0,0.0,,0.0,0.0,,0,0,0,,0,0,0.0,,,0.0,,0,-0.0,-0.0,-0.0,-0.0,,0.0,-5.625,,0,2,1,,0,1,0.0,0.0,0.0,0.0,0,,,0,,0,0,'',0,,4,0,0,189,2,,37.8699989319,,0,2.2186999321,-0.0149969998747,3.19999999192e-05,6.17000011971e-07,,0.0,0.0,,1,0,0,196,2,,38.8300018311,,0,-5.94140005112,-0.0153259998187,0.000157000002218,-6.6450002123e-06,,0.0,0.0,0,0
1620888972615934478,,,0,,0,0,'',0,0.0,0,,,50.0,,0,1.69920003414,-0.0168089997023,0.000213000006624,-1.6169999526e-06,,0.0,2.0,,197,2,1,,0,1,0.0,,,49.5600013733,,0,-1.52649998665,-0.0126700000837,7.59999966249e-05,-1.37899996844e-06,,0.0,-2.0,,198,2,1,,0,2,0.0,,,0.0,,0,0.0,0.0,0.0,0.0,,0.0,0.0,,0,0,0,,0,0,0.0,,,0.0,,0,-0.0,-0.0,-0.0,-0.0,,0.0,-5.625,,0,2,1,,0,1,0.0,0.0,0.0,0.0,0,,,0,,0,0,'',0,,4,0,0,189,2,,37.8699989319,,0,2.2186999321,-0.0149969998747,3.19999999192e-05,6.17000011971e-07,,0.0,0.0,,1,0,0,196,2,,38.8300018311,,0,-5.94140005112,-0.0153259998187,0.000157000002218,-6.6450002123e-06,,0.0,0.0,0,0
1620888972666041638,,,0,,0,0,'',0,0.0,0,,,49.4700012207,,0,1.70519995689,-0.0147740002722,0.000207000004593,-1.79100004516e-06,,0.0,2.0,,197,2,1,,0,1,0.0,,,49.9500007629,,0,-1.53079998493,-0.0114110000432,7.10000022082e-05,-1.37500001074e-06,,0.0,-2.0,,198,2,1,,0,2,0.0,,,0.0,,0,0.0,0.0,0.0,0.0,,0.0,0.0,,0,0,0,,0,0,0.0,,,0.0,,0,-0.0,-0.0,-0.0,-0.0,,0.0,-5.625,,0,2,1,,0,1,0.0,0.0,0.0,0.0,0,,,0,,0,0,'',0,,4,0,0,189,2,,37.2599983215,,0,2.20700001717,-0.0147569999099,3.60000012734e-05,1.79300002401e-06,,0.0,0.0,,1,0,0,196,2,,38.2099990845,,0,-5.94530010223,-0.0141129996628,0.000117000003229,-6.94800019119e-06,,0.0,0.0,0,0
1620888972715966309,,,0,,0,0,'',0,0.0,0,,,49.4700012207,,0,1.70079994202,-0.0140460003167,0.000205000003916,-1.79100004516e-06,,0.0,2.0,,197,2,1,,0,1,0.0,,,49.9500007629,,0,-1.53419995308,-0.0107680000365,7.00000018696e-05,-1.37500001074e-06,,0.0,-2.0,,198,2,1,,0,2,0.0,,,0.0,,0,0.0,0.0,0.0,0.0,,0.0,0.0,,0,0,0,,0,0,0.0,,,0.0,,0,-0.0,-0.0,-0.0,-0.0,,0.0,-5.625,,0,2,1,,0,1,0.0,0.0,0.0,0.0,0,,,0,,0,0,'',0,,4,0,0,189,2,,37.2599983215,,0,2.20700001717,-0.0147569999099,3.60000012734e-05,1.79300002401e-06,,0.0,0.0,,1,0,0,196,2,,38.2099990845,,0,-5.94530010223,-0.0141129996628,0.000117000003229,-6.94800019119e-06,,0.0,0.0,0,0
1620888972765987900,,,0,,0,0,'',0,0.0,0,,,50.0,,0,1.70280003548,-0.0123509997502,0.000203999996302,-2.0099998892e-06,,0.0,2.0,,197,2,1,,0,1,0.0,,,50.0,,0,-1.54569995403,-0.0101969996467,6.60000005155e-05,-1.37600000016e-06,,0.0,-2.0,,198,2,1,,0,2,0.0,,,0.0,,0,0.0,0.0,0.0,0.0,,0.0,0.0,,0,0,0,,0,0,0.0,,,0.0,,0,-0.0,-0.0,-0.0,-0.0,,0.0,-5.625,,0,2,1,,0,1,0.0,0.0,0.0,0.0,0,,,0,,0,0,'',0,,4,0,0,189,2,,37.9199981689,,0,2.19919991493,-0.0134119996801,3.8999998651e-05,1.79300002401e-06,,0.0,0.0,,4,0,0,196,2,,37.6100006104,,0,-5.94920015335,-0.013032999821,7.7999997302e-05,-3.832999937e-06,,0.0,0.0,0,0
1620888972816269435,,,0,,0,0,'',0,0.0,0,,,50.0,,0,1.69910001755,-0.0115649998188,0.000201999995625,-2.0099998892e-06,,0.0,2.0,,197,2,1,,0,1,0.0,,,50.0,,0,-1.54879999161,-0.00949500035495,6.39999998384e-05,-1.37600000016e-06,,0.0,-2.0,,198,2,1,,0,2,0.0,,,0.0,,0,0.0,0.0,0.0,0.0,,0.0,0.0,,0,0,0,,0,0,0.0,,,0.0,,0,-0.0,-0.0,-0.0,-0.0,,0.0,-5.625,,0,2,1,,0,1,0.0,0.0,0.0,0.0,0,,,0,,0,0,'',0,,4,0,0,189,2,,37.9199981689,,0,2.19919991493,-0.0134119996801,3.8999998651e-05,1.79300002401e-06,,0.0,0.0,,4,0,0,196,2,,37.6100006104,,0,-5.94920015335,-0.013032999821,7.7999997302e-05,-3.832999937e-06,,0.0,0.0,0,0
1620888972866015749,,,0,,0,0,'',0,0.0,0,,,50.0,,0,1.69729995728,-0.0111969998106,0.000201000002562,-2.0099998892e-06,,0.0,2.0,,197,2,1,,0,1,0.0,,,50.0,,0,-1.5501999855,-0.00917000044137,6.39999998384e-05,-1.37600000016e-06,,0.0,-2.0,,198,2,1,,0,2,0.0,,,0.0,,0,0.0,0.0,0.0,0.0,,0.0,0.0,,0,0,0,,0,0,0.0,,,0.0,,0,-0.0,-0.0,-0.0,-0.0,,0.0,-5.625,,0,2,1,,0,1,0.0,0.0,0.0,0.0,0,,,0,,0,0,'',0,,4,0,0,189,2,,37.9199981689,,0,2.19919991493,-0.0134119996801,3.8999998651e-05,1.79300002401e-06,,0.0,0.0,,4,0,0,196,2,,37.6100006104,,0,-5.94920015335,-0.013032999821,7.7999997302e-05,-3.832999937e-06,,0.0,0.0,0,0
1620888972915974694,,,0,,0,0,'',0,0.0,0,,,50.0,,0,1.70290005207,-0.0094889998436,0.000201000002562,-1.99500004783e-06,,0.0,2.0,,197,2,1,,0,1,0.0,,,50.0,,0,-1.56089997292,-0.00727399997413,6.09999988228e-05,-1.15700004244e-06,,0.0,-2.0,,198,2,1,,0,2,0.0,,,0.0,,0,0.0,0.0,0.0,0.0,,0.0,0.0,,0,0,0,,0,0,0.0,,,0.0,,0,-0.0,-0.0,-0.0,-0.0,,0.0,-5.625,,0,2,1,,0,1,0.0,0.0,0.0,0.0,0,,,0,,0,0,'',0,,4,0,0,189,2,,39.7999992371,,0,2.19140005112,-0.0110050002113,4.09999993281e-05,2.02599994736e-06,,0.0,0.0,,4,0,0,196,2,,39.2000007629,,0,-5.95699977875,-0.0128960004076,3.99999989895e-05,-2.36200003201e-06,,0.0,0.0,0,0
1620888972966186969,,,0,,0,0,'',0,0.0,0,,,50.0,,0,1.70000004768,-0.00869099982083,0.000199000001885,-1.99500004783e-06,,0.0,2.0,,197,2,1,,0,1,0.0,,,50.0,,0,-1.56299996376,-0.00656499993056,5.99999984843e-05,-1.15700004244e-06,,0.0,-2.0,,198,2,1,,0,2,0.0,,,0.0,,0,0.0,0.0,0.0,0.0,,0.0,0.0,,0,0,0,,0,0,0.0,,,0.0,,0,-0.0,-0.0,-0.0,-0.0,,0.0,-5.625,,0,2,1,,0,1,0.0,0.0,0.0,0.0,0,,,0,,0,0,'',0,,4,0,0,189,2,,39.7999992371,,0,2.19140005112,-0.0110050002113,4.09999993281e-05,2.02599994736e-06,,0.0,0.0,,4,0,0,196,2,,39.2000007629,,0,-5.95699977875,-0.0128960004076,3.99999989895e-05,-2.36200003201e-06,,0.0,0.0,0,0
1620888973015954504,,,0,,0,0,'',0,0.0,0,,,49.3800010681,,0,1.70299994946,-0.00902299955487,0.000195999993593,-2.1180001113e-06,,0.0,2.0,,197,2,1,,0,1,0.0,,,49.3800010681,,0,-1.55719995499,-0.0022309999913,5.50000004296e-05,-8.58000021253e-07,,0.0,-2.0,,198,2,1,,0,2,0.0,,,0.0,,0,0.0,0.0,0.0,0.0,,0.0,0.0,,0,0,0,,0,0,0.0,,,0.0,,0,-0.0,-0.0,-0.0,-0.0,,0.0,-5.625,,0,2,1,,0,1,0.0,0.0,0.0,0.0,0,,,0,,0,0,'',0,,4,0,0,189,2,,39.1699981689,,0,2.21479988098,-0.00568100018427,3.99999989895e-05,1.6039999764e-06,,0.0,0.0,,4,0,0,196,2,,40.3400001526,,0,-5.96089982986,-0.0123079996556,1.20000004245e-05,8.31000022572e-07,,0.0,0.0,0,0
1620888973065887653,,,0,,0,0,'',0,0.0,0,,,49.3800010681,,0,1.70029997826,-0.00810599979013,0.000193999992916,-2.1180001113e-06,,0.0,2.0,,197,2,1,,0,1,0.0,,,49.3800010681,,0,-1.55780005455,-0.00140199996531,5.50000004296e-05,-8.58000021253e-07,,0.0,-2.0,,198,2,1,,0,2,0.0,,,0.0,,0,0.0,0.0,0.0,0.0,,0.0,0.0,,0,0,0,,0,0,0.0,,,0.0,,0,-0.0,-0.0,-0.0,-0.0,,0.0,-5.625,,0,2,1,,0,1,0.0,0.0,0.0,0.0,0,,,0,,0,0,'',0,,4,0,0,189,2,,39.1699981689,,0,2.21479988098,-0.00568100018427,3.99999989895e-05,1.6039999764e-06,,0.0,0.0,,4,0,0,196,2,,40.3400001526,,0,-5.96089982986,-0.0123079996556,1.20000004245e-05,8.31000022572e-07,,0.0,0.0,0,0
1620888973116220233,,,0,,0,0,'',0,0.0,0,,,50.0,,0,1.70980000496,-0.00740600004792,0.000197999994271,-1.52600000547e-06,,0.0,2.0,,197,2,1,,0,1,0.0,,,50.0,,0,-1.56330001354,-0.00067300000228,4.89999983984e-05,-1.79400001343e-06,,0.0,-2.0,,198,2,1,,0,2,0.0,,,0.0,,0,0.0,0.0,0.0,0.0,,0.0,0.0,,0,0,0,,0,0,0.0,,,0.0,,0,-0.0,-0.0,-0.0,-0.0,,0.0,-5.625,,0,2,1,,0,1,0.0,0.0,0.0,0.0,0,,,0,,0,0,'',0,,1,0,0,189,2,,38.5499992371,,0,2.21090006828,-0.00498299999163,4.40000003437e-05,9.82999949883e-07,,0.0,0.0,,1,0,0,196,2,,39.7299995422,,0,-5.96089982986,-0.00955099985003,9.99999997475e-07,1.62300000284e-06,,0.0,0.0,0,0
1620888973166063293,,,0,,0,0,'',0,0.0,0,,,50.0,,0,1.70759999752,-0.00667000003159,0.000195999993593,-1.52600000547e-06,,0.0,2.0,,197,2,1,,0,1,0.0,,,50.0,,0,-1.56340003014,-3.09999995807e-05,4.70000013593e-05,-1.79400001343e-06,,0.0,-2.0,,198,2,1,,0,2,0.0,,,0.0,,0,0.0,0.0,0.0,0.0,,0.0,0.0,,0,0,0,,0,0,0.0,,,0.0,,0,-0.0,-0.0,-0.0,-0.0,,0.0,-5.625,,0,2,1,,0,1,0.0,0.0,0.0,0.0,0,,,0,,0,0,'',0,,1,0,0,189,2,,38.5499992371,,0,2.21090006828,-0.00498299999163,4.40000003437e-05,9.82999949883e-07,,0.0,0.0,,1,0,0,196,2,,39.7299995422,,0,-5.96089982986,-0.00955099985003,9.99999997475e-07,1.62300000284e-06,,0.0,0.0,0,0
1620888973215903305,,,0,,0,0,'',0,0.0,0,,,50.0,,0,1.71080005169,-0.00560900010169,0.000197999994271,-1.4590000319e-06,,0.0,2.0,,197,2,1,,0,1,0.0,,,50.0,,0,-1.56190001965,0.00159300002269,4.19999996666e-05,-2.11499991565e-06,,0.0,-2.0,,198,2,1,,0,2,0.0,,,0.0,,0,0.0,0.0,0.0,0.0,,0.0,0.0,,0,0,0,,0,0,0.0,,,0.0,,0,-0.0,-0.0,-0.0,-0.0,,0.0,-5.625,,0,2,1,,0,1,0.0,0.0,0.0,0.0,0,,,0,,0,0,'',0,,1,0,0,189,2,,37.9300003052,,0,2.20700001717,-0.00406999979168,4.60000010207e-05,4.99999998738e-07,,0.0,0.0,,1,0,0,196,2,,39.1199989319,,0,-5.95699977875,-0.0067389998585,-4.99999987369e-06,3.05599996864e-06,,0.0,0.0,0,0
1620888973266159872,,,0,,0,0,'',0,0.0,0,,,50.0,,0,1.7092000246,-0.00487399986014,0.000195999993593,-1.4590000319e-06,,0.0,2.0,,197,2,1,,0,1,0.0,,,50.0,,0,-1.5612000227,0.0022309999913,4.09999993281e-05,-2.11499991565e-06,,0.0,-2.0,,198,2,1,,0,2,0.0,,,0.0,,0,0.0,0.0,0.0,0.0,,0.0,0.0,,0,0,0,,0,0,0.0,,,0.0,,0,-0.0,-0.0,-0.0,-0.0,,0.0,-5.625,,0,2,1,,0,1,0.0,0.0,0.0,0.0,0,,,0,,0,0,'',0,,1,0,0,189,2,,37.9300003052,,0,2.20700001717,-0.00406999979168,4.60000010207e-05,4.99999998738e-07,,0.0,0.0,,1,0,0,196,2,,39.1199989319,,0,-5.95699977875,-0.0067389998585,-4.99999987369e-06,3.05599996864e-06,,0.0,0.0,0,0
1620888973316003364,,,0,,0,0,'',0,0.0,0,,,50.0,,0,1.70840001106,-0.00450599985197,0.000195000000531,-1.4590000319e-06,,0.0,2.0,,197,2,1,,0,1,0.0,,,50.0,,0,-1.56089997292,0.00255000009201,3.99999989895e-05,-2.11499991565e-06,,0.0,-2.0,,198,2,1,,0,2,0.0,,,0.0,,0,0.0,0.0,0.0,0.0,,0.0,0.0,,0,0,0,,0,0,0.0,,,0.0,,0,-0.0,-0.0,-0.0,-0.0,,0.0,-5.625,,0,2,1,,0,1,0.0,0.0,0.0,0.0,0,,,0,,0,0,'',0,,1,0,0,189,2,,37.9300003052,,0,2.20700001717,-0.00406999979168,4.60000010207e-05,4.99999998738e-07,,0.0,0.0,,1,0,0,196,2,,39.1199989319,,0,-5.95699977875,-0.0067389998585,-4.99999987369e-06,3.05599996864e-06,,0.0,0.0,0,0
1620888973366230667,,,0,,0,0,'',0,0.0,0,,,50.0,,0,1.70299994946,-0.00317499996163,0.000199000001885,-1.26099996578e-06,,0.0,2.0,,197,2,1,,0,1,0.0,,,49.3800010681,,0,-1.55910003185,0.00449599977583,3.70000016119e-05,-1.92199991034e-06,,0.0,-2.0,,198,2,1,,0,2,0.0,,,0.0,,0,0.0,0.0,0.0,0.0,,0.0,0.0,,0,0,0,,0,0,0.0,,,0.0,,0,-0.0,-0.0,-0.0,-0.0,,0.0,-5.625,,0,2,1,,0,1,0.0,0.0,0.0,0.0,0,,,0,,0,0,'',0,,1,0,0,189,2,,39.5800018311,,0,2.23040008545,0.000222999995458,4.40000003437e-05,7.80999982908e-07,,0.0,0.0,,4,0,0,196,2,,38.5,,0,-5.95699977875,-0.00572799984366,-2.09999998333e-05,1.60199999755e-06,,0.0,0.0,0,0
1620888973415888294,,,0,,0,0,'',0,0.0,0,,,50.0,,0,1.70249998569,-0.00286799995229,0.000197999994271,-1.26099996578e-06,,0.0,2.0,,197,2,1,,0,1,0.0,,,49.3800010681,,0,-1.5584000349,0.00475300010294,3.60000012734e-05,-1.92199991034e-06,,0.0,-2.0,,198,2,1,,0,2,0.0,,,0.0,,0,0.0,0.0,0.0,0.0,,0.0,0.0,,0,0,0,,0,0,0.0,,,0.0,,0,-0.0,-0.0,-0.0,-0.0,,0.0,-5.625,,0,2,1,,0,1,0.0,0.0,0.0,0.0,0,,,0,,0,0,'',0,,1,0,0,189,2,,39.5800018311,,0,2.23040008545,0.000222999995458,4.40000003437e-05,7.80999982908e-07,,0.0,0.0,,4,0,0,196,2,,38.5,,0,-5.95699977875,-0.00572799984366,-2.09999998333e-05,1.60199999755e-06,,0.0,0.0,0,0
1620888973466046917,,,0,,0,0,'',0,0.0,0,,,50.0,,0,1.69649994373,-0.00288800010458,0.000195999993593,-1.18800005566e-06,,0.0,2.0,,197,2,1,,0,1,0.0,,,50.0,,0,-1.55460000038,0.00538899982348,3.30000002577e-05,-1.82500002666e-06,,0.0,-2.0,,198,2,1,,0,2,0.0,,,0.0,,0,0.0,0.0,0.0,0.0,,0.0,0.0,,0,0,0,,0,0,0.0,,,0.0,,0,-0.0,-0.0,-0.0,-0.0,,0.0,-5.625,,0,2,1,,0,1,0.0,0.0,0.0,0.0,0,,,0,,0,0,'',0,,1,0,0,189,2,,38.9599990845,,0,2.23040008545,-0.000592999975197,4.89999983984e-05,1.18000002658e-07,,0.0,0.0,,1,0,0,196,2,,39.25,,0,-5.96089982986,-0.00713999988511,-3.79999983124e-05,-2.23300003199e-06,,0.0,0.0,0,0
1620888973516173518,,,0,,0,0,'',0,0.0,0,,,50.0,,0,1.69560003281,-0.00264200009406,0.000193999992916,-1.18800005566e-06,,0.0,2.0,,197,2,1,,0,1,0.0,,,50.0,,0,-1.5528999567,0.00553200021386,3.09999995807e-05,-1.82500002666e-06,,0.0,-2.0,,198,2,1,,0,2,0.0,,,0.0,,0,0.0,0.0,0.0,0.0,,0.0,0.0,,0,0,0,,0,0,0.0,,,0.0,,0,-0.0,-0.0,-0.0,-0.0,,0.0,-5.625,,0,2,1,,0,1,0.0,0.0,0.0,0.0,0,,,0,,0,0,'',0,,1,0,0,189,2,,38.9599990845,,0,2.23040008545,-0.000592999975197,4.89999983984e-05,1.18000002658e-07,,0.0,0.0,,1,0,0,196,2,,39.25,,0,-5.96089982986,-0.00713999988511,-3.79999983124e-05,-2.23300003199e-06,,0.0,0.0,0,0
1620888973565978179,,,0,,0,0,'',0,0.0,0,,,50.0,,0,1.6971000433,-0.0024389999453,0.000193999992916,-1.11899998956e-06,,0.0,2.0,,197,2,1,,0,1,0.0,,,50.0,,0,-1.54990005493,0.0060330000706,2.70000000455e-05,-2.30899991038e-06,,0.0,-2.0,,198,2,1,,0,2,0.0,,,0.0,,0,0.0,0.0,0.0,0.0,,0.0,0.0,,0,0,0,,0,0,0.0,,,0.0,,0,-0.0,-0.0,-0.0,-0.0,,0.0,-5.625,,0,2,1,,0,1,0.0,0.0,0.0,0.0,0,,,0,,0,0,'',0,,1,0,0,189,2,,38.3300018311,,0,2.22650003433,1.99999994948e-05,4.89999983984e-05,-4.43999994104e-07,,0.0,0.0,,1,0,0,196,2,,38.6199989319,,0,-5.96089982986,-0.00596399977803,-4.80000016978e-05,3.73000005993e-07,,0.0,0.0,0,0
1620888973615916116,,,0,,0,0,'',0,0.0,0,,,50.0,,0,1.69640004635,-0.00231499993242,0.000192999999854,-1.11899998956e-06,,0.0,2.0,,197,2,1,,0,1,0.0,,,50.0,,0,-1.54799997807,0.00605100020766,2.40000008489e-05,-2.30899991038e-06,,0.0,-2.0,,198,2,1,,0,2,0.0,,,0.0,,0,0.0,0.0,0.0,0.0,,0.0,0.0,,0,0,0,,0,0,0.0,,,0.0,,0,-0.0,-0.0,-0.0,-0.0,,0.0,-5.625,,0,2,1,,0,1,0.0,0.0,0.0,0.0,0,,,0,,0,0,'',0,,1,0,0,189,2,,38.3300018311,,0,2.22650003433,1.99999994948e-05,4.89999983984e-05,-4.43999994104e-07,,0.0,0.0,,1,0,0,196,2,,38.6199989319,,0,-5.96089982986,-0.00596399977803,-4.80000016978e-05,3.73000005993e-07,,0.0,0.0,0,0
1620888973665931650,,,0,,0,0,'',0,0.0,0,,,50.0,,0,1.6984000206,-0.000936999975238,0.000190000006114,-1.39199994464e-06,,0.0,2.0,,197,2,1,,0,1,0.0,,,50.0,,0,-1.55110001564,0.00572199979797,2.40000008489e-05,-1.54300005306e-06,,0.0,-2.0,,198,2,1,,0,2,0.0,,,0.0,,0,0.0,0.0,0.0,0.0,,0.0,0.0,,0,0,0,,0,0,0.0,,,0.0,,0,-0.0,-0.0,-0.0,-0.0,,0.0,-5.625,,0,2,1,,0,1,0.0,0.0,0.0,0.0,0,,,0,,0,0,'',0,,1,0,0,189,2,,37.7000007629,,0,2.22259998322,-0.000307999987854,4.89999983984e-05,-1.62000006299e-07,,0.0,0.0,,1,0,0,196,2,,38.0,,0,-5.96479988098,-0.0062020001933,-5.50000004296e-05,1.77599997642e-06,,0.0,0.0,0,0
1620888973715939848,,,0,,0,0,'',0,0.0,0,,,50.0,,0,1.69819998741,-0.000693999987561,0.000188000005437,-1.39199994464e-06,,0.0,2.0,,197,2,1,,0,1,0.0,,,50.0,,0,-1.54920005798,0.00586100015789,2.30000005104e-05,-1.54300005306e-06,,0.0,-2.0,,198,2,1,,0,2,0.0,,,0.0,,0,0.0,0.0,0.0,0.0,,0.0,0.0,,0,0,0,,0,0,0.0,,,0.0,,0,-0.0,-0.0,-0.0,-0.0,,0.0,-5.625,,0,2,1,,0,1,0.0,0.0,0.0,0.0,0,,,0,,0,0,'',0,,1,0,0,189,2,,37.7000007629,,0,2.22259998322,-0.000307999987854,4.89999983984e-05,-1.62000006299e-07,,0.0,0.0,,1,0,0,196,2,,38.0,,0,-5.96479988098,-0.0062020001933,-5.50000004296e-05,1.77599997642e-06,,0.0,0.0,0,0
1620888973765979924,,,0,,0,0,'',0,0.0,0,,,50.0,,0,1.71500003338,0.000635000003967,0.000184999997145,-1.45100000282e-06,,0.0,2.0,,197,2,1,,0,1,0.0,,,50.0,,0,-1.54279994965,0.0064489999786,2.09999998333e-05,-1.44399996316e-06,,0.0,-2.0,,198,2,1,,0,2,0.0,,,0.0,,0,0.0,0.0,0.0,0.0,,0.0,0.0,,0,0,0,,0,0,0.0,,,0.0,,0,-0.0,-0.0,-0.0,-0.0,,0.0,-5.625,,0,2,1,,0,1,0.0,0.0,0.0,0.0,0,,,0,,0,0,'',0,,1,0,0,189,2,,37.0499992371,,0,2.22650003433,0.00136700004805,4.70000013593e-05,8.76999990851e-07,,0.0,0.0,,1,0,0,196,2,,37.3699989319,,0,-5.96089982986,-0.0047140000388,-6.09999988228e-05,2.21400000555e-06,,0.0,0.0,0,0
1620888973816202158,,,0,,0,0,'',0,0.0,0,,,50.0,,0,1.71529996395,0.000814999977592,0.000184000004083,-1.45100000282e-06,,0.0,2.0,,197,2,1,,0,1,0.0,,,50.0,,0,-1.5406999588,0.0065239998512,1.99999994948e-05,-1.44399996316e-06,,0.0,-2.0,,198,2,1,,0,2,0.0,,,0.0,,0,0.0,0.0,0.0,0.0,,0.0,0.0,,0,0,0,,0,0,0.0,,,0.0,,0,-0.0,-0.0,-0.0,-0.0,,0.0,-5.625,,0,2,1,,0,1,0.0,0.0,0.0,0.0,0,,,0,,0,0,'',0,,1,0,0,189,2,,37.0499992371,,0,2.22650003433,0.00136700004805,4.70000013593e-05,8.76999990851e-07,,0.0,0.0,,1,0,0,196,2,,37.3699989319,,0,-5.96089982986,-0.0047140000388,-6.09999988228e-05,2.21400000555e-06,,0.0,0.0,0,0
1620888973866116173,,,0,,0,0,'',0,0.0,0,,,50.0,,0,1.71539998055,0.000872000004165,0.000182999996468,-1.45100000282e-06,,0.0,2.0,,197,2,1,,0,1,0.0,,,50.0,,0,-1.53970003128,0.00652999989688,1.89999991562e-05,-1.44399996316e-06,,0.0,-2.0,,198,2,1,,0,2,0.0,,,0.0,,0,0.0,0.0,0.0,0.0,,0.0,0.0,,0,0,0,,0,0,0.0,,,0.0,,0,-0.0,-0.0,-0.0,-0.0,,0.0,-5.625,,0,2,1,,0,1,0.0,0.0,0.0,0.0,0,,,0,,0,0,'',0,,1,0,0,189,2,,37.0499992371,,0,2.22650003433,0.00136700004805,4.70000013593e-05,8.76999990851e-07,,0.0,0.0,,1,0,0,196,2,,37.3699989319,,0,-5.96089982986,-0.0047140000388,-6.09999988228e-05,2.21400000555e-06,,0.0,0.0,0,0
1620888973916043716,,,0,,0,0,'',0,0.0,0,,,50.0,,0,1.71850001812,-0.000148000006448,0.000182999996468,-1.51799997639e-06,,0.0,2.0,,197,2,1,,0,1,0.0,,,49.3600006104,,0,-1.53699994087,0.00743500003591,1.80000006367e-05,-1.24700000015e-06,,0.0,-2.0,,198,2,1,,0,2,0.0,,,0.0,,0,0.0,0.0,0.0,0.0,,0.0,0.0,,0,0,0,,0,0,0.0,,,0.0,,0,-0.0,-0.0,-0.0,-0.0,,0.0,-5.625,,0,2,1,,0,1,0.0,0.0,0.0,0.0,0,,,0,,0,0,'',0,,1,0,0,189,2,,38.1100006104,,0,2.23040008545,0.00326999998651,4.60000010207e-05,1.24200005303e-06,,0.0,0.0,,1,0,0,196,2,,36.7299995422,,0,-5.96479988098,-0.00595400016755,-5.80000014452e-05,2.60399997387e-06,,0.0,0.0,0,0
1620888973965992131,,,0,,0,0,'',0,0.0,0,,,50.0,,0,1.71840000153,-3.19999999192e-05,0.000180999995791,-1.51799997639e-06,,0.0,2.0,,197,2,1,,0,1,0.0,,,49.3600006104,,0,-1.53460001945,0.00744700012729,1.70000002981e-05,-1.24700000015e-06,,0.0,-2.0,,198,2,1,,0,2,0.0,,,0.0,,0,0.0,0.0,0.0,0.0,,0.0,0.0,,0,0,0,,0,0,0.0,,,0.0,,0,-0.0,-0.0,-0.0,-0.0,,0.0,-5.625,,0,2,1,,0,1,0.0,0.0,0.0,0.0,0,,,0,,0,0,'',0,,1,0,0,189,2,,38.1100006104,,0,2.23040008545,0.00326999998651,4.60000010207e-05,1.24200005303e-06,,0.0,0.0,,1,0,0,196,2,,36.7299995422,,0,-5.96479988098,-0.00595400016755,-5.80000014452e-05,2.60399997387e-06,,0.0,0.0,0,0
1620888974015931544,,,0,,0,0,'',0,0.0,0,,,49.3600006104,,0,1.71749997139,-0.00127699994482,0.000184000004083,-9.45000010688e-07,,0.0,2.0,,197,2,1,,0,1,0.0,,,48.2999992371,,0,-1.52380001545,0.00917099975049,1.49999996211e-05,-1.29000000015e-06,,0.0,-2.0,,198,2,1,,0,2,0.0,,,0.0,,0,0.0,0.0,0.0,0.0,,0.0,0.0,,0,0,0,,0,0,0.0,,,0.0,,0,-0.0,-0.0,-0.0,-0.0,,0.0,-5.625,,0,2,1,,0,1,0.0,0.0,0.0,0.0,0,,,0,,0,0,'',0,,1,0,0,189,2,,38.0699996948,,0,2.25390005112,0.00417899992317,4.80000016978e-05,-2.1200000333e-07,,0.0,0.0,,4,0,0,196,2,,39.8600006104,,0,-5.96089982986,-0.00317499996163,-5.09999990754e-05,5.14400016982e-06,,0.0,0.0,0,0
1620888974065917582,,,0,,0,0,'',0,0.0,0,,,49.3600006104,,0,1.71720004082,-0.00115799997002,0.000182999996468,-9.45000010688e-07,,0.0,2.0,,197,2,1,,0,1,0.0,,,48.2999992371,,0,-1.52079999447,0.0091810002923,1.4000000192e-05,-1.29000000015e-06,,0.0,-2.0,,198,2,1,,0,2,0.0,,,0.0,,0,0.0,0.0,0.0,0.0,,0.0,0.0,,0,0,0,,0,0,0.0,,,0.0,,0,-0.0,-0.0,-0.0,-0.0,,0.0,-5.625,,0,2,1,,0,1,0.0,0.0,0.0,0.0,0,,,0,,0,0,'',0,,1,0,0,189,2,,38.0699996948,,0,2.25390005112,0.00417899992317,4.80000016978e-05,-2.1200000333e-07,,0.0,0.0,,4,0,0,196,2,,39.8600006104,,0,-5.96089982986,-0.00317499996163,-5.09999990754e-05,5.14400016982e-06,,0.0,0.0,0,0
1620888974115962821,,,0,,0,0,'',0,0.0,0,,,48.7099990845,,0,1.71749997139,-0.00168700003996,0.000184000004083,-7.42999986869e-07,,0.0,2.0,,197,2,1,,0,1,0.0,,,47.25,,0,-1.51680004597,0.0101370001212,1.29999998535e-05,-1.17699994462e-06,,0.0,-2.0,,198,2,1,,0,2,0.0,,,0.0,,0,0.0,0.0,0.0,0.0,,0.0,0.0,,0,0,0,,0,0,0.0,,,0.0,,0,-0.0,-0.0,-0.0,-0.0,,0.0,-5.625,,0,2,1,,0,1,0.0,0.0,0.0,0.0,0,,,0,,0,0,'',0,,1,0,0,189,2,,39.5499992371,,0,2.25390005112,0.00346000003628,4.80000016978e-05,-1.64599998698e-06,,0.0,0.0,,1,0,0,196,2,,39.2099990845,,0,-5.96089982986,-0.00254700006917,-3.8999998651e-05,8.259000424e-06,,0.0,0.0,0,0
1620888974166087540,,,0,,0,0,'',0,0.0,0,,,48.7099990845,,0,1.71700000763,-0.00156500004232,0.000182999996468,-7.42999986869e-07,,0.0,2.0,,197,2,1,,0,1,0.0,,,47.25,,0,-1.51339995861,0.0101460004225,1.20000004245e-05,-1.17699994462e-06,,0.0,-2.0,,198,2,1,,0,2,0.0,,,0.0,,0,0.0,0.0,0.0,0.0,,0.0,0.0,,0,0,0,,0,0,0.0,,,0.0,,0,-0.0,-0.0,-0.0,-0.0,,0.0,-5.625,,0,2,1,,0,1,0.0,0.0,0.0,0.0,0,,,0,,0,0,'',0,,1,0,0,189,2,,39.5499992371,,0,2.25390005112,0.00346000003628,4.80000016978e-05,-1.64599998698e-06,,0.0,0.0,,1,0,0,196,2,,39.2099990845,,0,-5.96089982986,-0.00254700006917,-3.8999998651e-05,8.259000424e-06,,0.0,0.0,0,0
1620888974216052298,,,0,,0,0,'',0,0.0,0,,,48.0600013733,,0,1.72510004044,-0.00202400004491,0.000184000004083,-4.35000004018e-07,,0.0,2.0,,197,2,1,,0,1,0.0,,,47.0499992371,,0,-1.50839996338,0.010985000059,9.99999974738e-06,-9.87000021269e-07,,0.0,-2.0,,198,2,1,,0,2,0.0,,,0.0,,0,0.0,0.0,0.0,0.0,,0.0,0.0,,0,0,0,,0,0,0.0,,,0.0,,0,-0.0,-0.0,-0.0,-0.0,,0.0,-5.625,,0,2,1,,0,1,0.0,0.0,0.0,0.0,0,,,0,,0,0,'',0,,1,0,0,189,2,,41.2299995422,,0,2.25390005112,0.00314799998887,4.70000013593e-05,-1.34999993406e-07,,0.0,0.0,,1,0,0,196,2,,40.0400009155,,0,-5.96089982986,-0.00333800003864,-2.90000007226e-05,7.70099995862e-06,,0.0,0.0,0,0
1620888974265879755,,,0,,0,0,'',0,0.0,0,,,48.0600013733,,0,1.72440004349,-0.00190200004727,0.000182999996468,-4.35000004018e-07,,0.0,2.0,,197,2,1,,0,1,0.0,,,47.0499992371,,0,-1.50469994545,0.0109919998795,9.00000031834e-06,-9.87000021269e-07,,0.0,-2.0,,198,2,1,,0,2,0.0,,,0.0,,0,0.0,0.0,0.0,0.0,,0.0,0.0,,0,0,0,,0,0,0.0,,,0.0,,0,-0.0,-0.0,-0.0,-0.0,,0.0,-5.625,,0,2,1,,0,1,0.0,0.0,0.0,0.0,0,,,0,,0,0,'',0,,1,0,0,189,2,,41.2299995422,,0,2.25390005112,0.00314799998887,4.70000013593e-05,-1.34999993406e-07,,0.0,0.0,,1,0,0,196,2,,40.0400009155,,0,-5.96089982986,-0.00333800003864,-2.90000007226e-05,7.70099995862e-06,,0.0,0.0,0,0
1620888974316217332,,,0,,0,0,'',0,0.0,0,,,47.7400016785,,0,1.72950005531,-0.00125600001775,0.000182999996468,-3.44000000041e-07,,0.0,2.0,,197,2,1,,0,1,0.0,,,47.8300018311,,0,-1.50419998169,0.0112250000238,7.00000009601e-06,-1.54899998961e-06,,0.0,-2.0,,198,2,1,,0,2,0.0,,,0.0,,0,0.0,0.0,0.0,0.0,,0.0,0.0,,0,0,0,,0,0,0.0,,,0.0,,0,-0.0,-0.0,-0.0,-0.0,,0.0,-5.625,,0,2,1,,0,1,0.0,0.0,0.0,0.0,0,,,0,,0,0,'',0,,1,0,0,189,2,,40.5699996948,,0,2.25780010223,0.00398200005293,4.50000006822e-05,-2.58999989455e-07,,0.0,0.0,,1,0,0,196,2,,39.3699989319,,0,-5.96089982986,-0.0023640000727,-1.4000000192e-05,7.34700006433e-06,,0.0,0.0,0,0
